{
"type": "FeatureCollection",
"name": "airecovoiturageepci",
"crs": { "type": "name", "properties": { "name": "urn:ogc:def:crs:OGC:1.3:CRS84" } },
"features": [
{ "type": "Feature", "properties": { "ID": "EPCI00000000000000000133", "CODE_EPCI": "200038990", "TYPE_EPCI": "CC", "FORMEL_OK_": 4, "INFORM_OK_": 2, "PROJET_OK_": 1, "F_OR_INF": "F_SUP", "NB_AIRES": 6, "CLASS": 5, "NOM_EPCI": "CC de Saint-Méen en Montauban" }, "geometry": { "type": "Point", "coordinates": [ -2.110914545730173, 48.182421684715067 ] } },
{ "type": "Feature", "properties": { "ID": "EPCI00000000000000000134", "CODE_EPCI": "200039022", "TYPE_EPCI": "CA", "FORMEL_OK_": 14, "INFORM_OK_": 6, "PROJET_OK_": 2, "F_OR_INF": "F_SUP", "NB_AIRES": 20, "CLASS": 20, "NOM_EPCI": "CA Vitré Communauté" }, "geometry": { "type": "Point", "coordinates": [ -1.227708650550791, 48.063629060937195 ] } },
{ "type": "Feature", "properties": { "ID": "EPCI00000000000000000256", "CODE_EPCI": "200043990", "TYPE_EPCI": "CC", "FORMEL_OK_": 12, "INFORM_OK_": 3, "PROJET_OK_": 0, "F_OR_INF": "F_SUP", "NB_AIRES": 15, "CLASS": 10, "NOM_EPCI": "CC Vallons de Haute-Bretagne Communauté" }, "geometry": { "type": "Point", "coordinates": [ -1.900330712756969, 47.901237530992752 ] } },
{ "type": "Feature", "properties": { "ID": "EPCI00000000000000000569", "CODE_EPCI": "200070662", "TYPE_EPCI": "CC", "FORMEL_OK_": 8, "INFORM_OK_": 4, "PROJET_OK_": 2, "F_OR_INF": "F_SUP", "NB_AIRES": 12, "CLASS": 10, "NOM_EPCI": "CC Bretagne Porte de Loire Communauté" }, "geometry": { "type": "Point", "coordinates": [ -1.625059017435794, 47.838809590233708 ] } },
{ "type": "Feature", "properties": { "ID": "EPCI00000000000000000570", "CODE_EPCI": "200070670", "TYPE_EPCI": "CC", "FORMEL_OK_": 1, "INFORM_OK_": 0, "PROJET_OK_": 1, "F_OR_INF": "F_SUP", "NB_AIRES": 1, "CLASS": 5, "NOM_EPCI": "CC du Pays de Dol et de la Baie du Mont Saint-Michel" }, "geometry": { "type": "Point", "coordinates": [ -1.677980069954159, 48.538099635981887 ] } },
{ "type": "Feature", "properties": { "ID": "EPCI00000000000000000571", "CODE_EPCI": "200070688", "TYPE_EPCI": "CC", "FORMEL_OK_": 2, "INFORM_OK_": 10, "PROJET_OK_": 2, "F_OR_INF": "INF_SUP", "NB_AIRES": 12, "CLASS": 10, "NOM_EPCI": "CC Couesnon Marches de Bretagne" }, "geometry": { "type": "Point", "coordinates": [ -1.432979644664707, 48.40422314741231 ] } },
{ "type": "Feature", "properties": { "ID": "EPCI00000000000000000674", "CODE_EPCI": "200072452", "TYPE_EPCI": "CA", "FORMEL_OK_": 9, "INFORM_OK_": 21, "PROJET_OK_": 5, "F_OR_INF": "INF_SUP", "NB_AIRES": 30, "CLASS": 30, "NOM_EPCI": "CA Fougères Agglomération" }, "geometry": { "type": "Point", "coordinates": [ -1.134920860607572, 48.397315149448779 ] } },
{ "type": "Feature", "properties": { "ID": "EPCI00000000000000000901", "CODE_EPCI": "243500139", "TYPE_EPCI": "METRO", "FORMEL_OK_": 22, "INFORM_OK_": 26, "PROJET_OK_": 0, "F_OR_INF": "INF_SUP", "NB_AIRES": 48, "CLASS": 40, "NOM_EPCI": "Rennes Métropole" }, "geometry": { "type": "Point", "coordinates": [ -1.725937535152507, 48.123603724957299 ] } },
{ "type": "Feature", "properties": { "ID": "EPCI00000000000000000902", "CODE_EPCI": "243500550", "TYPE_EPCI": "CC", "FORMEL_OK_": 2, "INFORM_OK_": 2, "PROJET_OK_": 0, "F_OR_INF": "EGAL", "NB_AIRES": 4, "CLASS": 5, "NOM_EPCI": "CC Montfort Communauté" }, "geometry": { "type": "Point", "coordinates": [ -1.980004628528469, 48.142442331035824 ] } },
{ "type": "Feature", "properties": { "ID": "EPCI00000000000000000903", "CODE_EPCI": "243500618", "TYPE_EPCI": "CC", "FORMEL_OK_": 7, "INFORM_OK_": 2, "PROJET_OK_": 0, "F_OR_INF": "F_SUP", "NB_AIRES": 9, "CLASS": 5, "NOM_EPCI": "CC de Brocéliande" }, "geometry": { "type": "Point", "coordinates": [ -2.101242446154159, 48.01542463901734 ] } },
{ "type": "Feature", "properties": { "ID": "EPCI00000000000000000904", "CODE_EPCI": "243500634", "TYPE_EPCI": "CC", "FORMEL_OK_": 7, "INFORM_OK_": 0, "PROJET_OK_": 1, "F_OR_INF": "F_SUP", "NB_AIRES": 7, "CLASS": 5, "NOM_EPCI": "CC de La Roche aux Fées" }, "geometry": { "type": "Point", "coordinates": [ -1.390188475122568, 47.904316409447688 ] } },
{ "type": "Feature", "properties": { "ID": "EPCI00000000000000000905", "CODE_EPCI": "243500659", "TYPE_EPCI": "CC", "FORMEL_OK_": 8, "INFORM_OK_": 6, "PROJET_OK_": 0, "F_OR_INF": "F_SUP", "NB_AIRES": 14, "CLASS": 10, "NOM_EPCI": "CC Pays de Châteaugiron Communauté" }, "geometry": { "type": "Point", "coordinates": [ -1.501392902137369, 48.060120348159501 ] } },
{ "type": "Feature", "properties": { "ID": "EPCI00000000000000000906", "CODE_EPCI": "243500667", "TYPE_EPCI": "CC", "FORMEL_OK_": 10, "INFORM_OK_": 4, "PROJET_OK_": 1, "F_OR_INF": "F_SUP", "NB_AIRES": 14, "CLASS": 10, "NOM_EPCI": "CC Val d'Ille-Aubigné" }, "geometry": { "type": "Point", "coordinates": [ -1.679059836588155, 48.27737884555701 ] } },
{ "type": "Feature", "properties": { "ID": "EPCI00000000000000000907", "CODE_EPCI": "243500725", "TYPE_EPCI": "CC", "FORMEL_OK_": 2, "INFORM_OK_": 1, "PROJET_OK_": 0, "F_OR_INF": "F_SUP", "NB_AIRES": 3, "CLASS": 5, "NOM_EPCI": "CC Côte d'Emeraude" }, "geometry": { "type": "Point", "coordinates": [ -2.089557913285337, 48.588006641292374 ] } },
{ "type": "Feature", "properties": { "ID": "EPCI00000000000000000908", "CODE_EPCI": "243500733", "TYPE_EPCI": "CC", "FORMEL_OK_": 3, "INFORM_OK_": 2, "PROJET_OK_": 1, "F_OR_INF": "F_SUP", "NB_AIRES": 5, "CLASS": 5, "NOM_EPCI": "CC Bretagne Romantique" }, "geometry": { "type": "Point", "coordinates": [ -1.793700818464529, 48.38601294425564 ] } },
{ "type": "Feature", "properties": { "ID": "EPCI00000000000000000909", "CODE_EPCI": "243500741", "TYPE_EPCI": "CA", "FORMEL_OK_": 10, "INFORM_OK_": 6, "PROJET_OK_": 0, "F_OR_INF": "F_SUP", "NB_AIRES": 16, "CLASS": 10, "NOM_EPCI": "CA Redon Agglomération" }, "geometry": { "type": "Point", "coordinates": [ -1.992593161839648, 47.684059736567256 ] } },
{ "type": "Feature", "properties": { "ID": "EPCI00000000000000000910", "CODE_EPCI": "243500774", "TYPE_EPCI": "CC", "FORMEL_OK_": 7, "INFORM_OK_": 3, "PROJET_OK_": 5, "F_OR_INF": "F_SUP", "NB_AIRES": 10, "CLASS": 10, "NOM_EPCI": "CC Liffré-Cormier Communauté" }, "geometry": { "type": "Point", "coordinates": [ -1.42802443886561, 48.228930841966367 ] } },
{ "type": "Feature", "properties": { "ID": "EPCI00000000000000000911", "CODE_EPCI": "243500782", "TYPE_EPCI": "CA", "FORMEL_OK_": 3, "INFORM_OK_": 4, "PROJET_OK_": 0, "F_OR_INF": "INF_SUP", "NB_AIRES": 7, "CLASS": 5, "NOM_EPCI": "CA du Pays de Saint Malo Agglomération" }, "geometry": { "type": "Point", "coordinates": [ -1.875043505533861, 48.593004819482651 ] } }
]
}
