{
"type": "FeatureCollection",
"name": "nbpersactive",
"crs": { "type": "name", "properties": { "name": "urn:ogc:def:crs:OGC:1.3:CRS84" } },
"features": [
{ "type": "Feature", "properties": { "INSEE_COM": "35099", "NOM_COM_M": "DOMLOUP", "ouvriers": 12.7, "retraites": 13.6, "prof_inter": 24.0, "sans_activ": 14.2, "employes": 17.4, "artisans": 2.2, "agriculteu": 0.9, "cadres": 14.9, "nbactif": 1809 }, "geometry": { "type": "Point", "coordinates": [ -1.542949665329202, 48.068465231213679 ] } },
{ "type": "Feature", "properties": { "INSEE_COM": "35184", "NOM_COM_M": "MONTAUBAN DE BRETAGNE", "ouvriers": 15.4, "retraites": 28.4, "prof_inter": 15.7, "sans_activ": 12.2, "employes": 15.5, "artisans": 4.2, "agriculteu": 1.0, "cadres": 7.7, "nbactif": 2688 }, "geometry": { "type": "Point", "coordinates": [ -2.06544655663229, 48.204276423947704 ] } },
{ "type": "Feature", "properties": { "INSEE_COM": "35292", "NOM_COM_M": "SAINT MARC LE BLANC", "ouvriers": 19.8, "retraites": 31.5, "prof_inter": 10.9, "sans_activ": 10.6, "employes": 16.3, "artisans": 3.9, "agriculteu": 3.5, "cadres": 3.5, "nbactif": 754 }, "geometry": { "type": "Point", "coordinates": [ -1.39772552137067, 48.373396288546417 ] } },
{ "type": "Feature", "properties": { "INSEE_COM": "35004", "NOM_COM_M": "VAL COUESNON", "ouvriers": 17.9, "retraites": 38.7, "prof_inter": 7.8, "sans_activ": 12.8, "employes": 13.6, "artisans": 3.3, "agriculteu": 3.0, "cadres": 2.9, "nbactif": 1687 }, "geometry": { "type": "Point", "coordinates": [ -1.462671274640572, 48.440073496667715 ] } },
{ "type": "Feature", "properties": { "INSEE_COM": "35282", "NOM_COM_M": "RIVES DU COUESNON", "ouvriers": 20.9, "retraites": 25.5, "prof_inter": 13.3, "sans_activ": 8.7, "employes": 18.8, "artisans": 1.2, "agriculteu": 6.3, "cadres": 5.3, "nbactif": 1371 }, "geometry": { "type": "Point", "coordinates": [ -1.34573935862881, 48.284928238439988 ] } },
{ "type": "Feature", "properties": { "INSEE_COM": "35308", "NOM_COM_M": "MESNIL ROC H", "ouvriers": 15.9, "retraites": 25.3, "prof_inter": 16.6, "sans_activ": 15.7, "employes": 17.1, "artisans": 5.0, "agriculteu": 0.5, "cadres": 3.9, "nbactif": 2000 }, "geometry": { "type": "Point", "coordinates": [ -1.87784181726075, 48.458014593968493 ] } },
{ "type": "Feature", "properties": { "INSEE_COM": "35001", "NOM_COM_M": "ACIGNE", "ouvriers": 8.8, "retraites": 23.7, "prof_inter": 17.6, "sans_activ": 12.1, "employes": 15.1, "artisans": 3.3, "agriculteu": 1.0, "cadres": 18.5, "nbactif": 3384 }, "geometry": { "type": "Point", "coordinates": [ -1.519156900507045, 48.14647459295773 ] } },
{ "type": "Feature", "properties": { "INSEE_COM": "35207", "NOM_COM_M": "NOYAL SUR VILAINE", "ouvriers": 13.0, "retraites": 26.9, "prof_inter": 16.2, "sans_activ": 12.9, "employes": 16.0, "artisans": 2.6, "agriculteu": 1.2, "cadres": 11.1, "nbactif": 3021 }, "geometry": { "type": "Point", "coordinates": [ -1.505230216784854, 48.091423952574942 ] } },
{ "type": "Feature", "properties": { "INSEE_COM": "35220", "NOM_COM_M": "PIRE CHANCE", "ouvriers": 19.1, "retraites": 18.3, "prof_inter": 15.1, "sans_activ": 12.0, "employes": 18.9, "artisans": 4.7, "agriculteu": 4.0, "cadres": 7.8, "nbactif": 1479 }, "geometry": { "type": "Point", "coordinates": [ -1.421510278863941, 48.013512917058065 ] } },
{ "type": "Feature", "properties": { "INSEE_COM": "35204", "NOM_COM_M": "NOUVOITOU", "ouvriers": 11.1, "retraites": 23.3, "prof_inter": 18.1, "sans_activ": 10.9, "employes": 18.1, "artisans": 3.7, "agriculteu": 2.3, "cadres": 12.4, "nbactif": 1527 }, "geometry": { "type": "Point", "coordinates": [ -1.552342029251477, 48.030580681014179 ] } },
{ "type": "Feature", "properties": { "INSEE_COM": "35124", "NOM_COM_M": "GRAND FOUGERAY", "ouvriers": 19.7, "retraites": 30.8, "prof_inter": 12.0, "sans_activ": 11.3, "employes": 14.1, "artisans": 3.8, "agriculteu": 3.1, "cadres": 5.1, "nbactif": 1136 }, "geometry": { "type": "Point", "coordinates": [ -1.728298644810097, 47.734206570300692 ] } },
{ "type": "Feature", "properties": { "INSEE_COM": "35163", "NOM_COM_M": "LUITRE DOMPIERRE", "ouvriers": 19.4, "retraites": 33.7, "prof_inter": 12.6, "sans_activ": 9.5, "employes": 13.2, "artisans": 4.0, "agriculteu": 4.1, "cadres": 3.4, "nbactif": 876 }, "geometry": { "type": "Point", "coordinates": [ -1.134055182318674, 48.286811918686212 ] } },
{ "type": "Feature", "properties": { "INSEE_COM": "35171", "NOM_COM_M": "MEDREAC", "ouvriers": 18.9, "retraites": 32.8, "prof_inter": 10.7, "sans_activ": 9.2, "employes": 16.0, "artisans": 2.9, "agriculteu": 3.6, "cadres": 6.1, "nbactif": 865 }, "geometry": { "type": "Point", "coordinates": [ -2.061026840343527, 48.261182542565095 ] } },
{ "type": "Feature", "properties": { "INSEE_COM": "35345", "NOM_COM_M": "TREVERIEN", "ouvriers": 17.4, "retraites": 24.2, "prof_inter": 12.9, "sans_activ": 16.7, "employes": 16.7, "artisans": 3.0, "agriculteu": 2.3, "cadres": 6.8, "nbactif": 424 }, "geometry": { "type": "Point", "coordinates": [ -1.920226661834799, 48.371169808561454 ] } },
{ "type": "Feature", "properties": { "INSEE_COM": "35228", "NOM_COM_M": "PLEURTUIT", "ouvriers": 9.2, "retraites": 34.8, "prof_inter": 14.1, "sans_activ": 11.5, "employes": 19.4, "artisans": 4.3, "agriculteu": 0.8, "cadres": 5.9, "nbactif": 2998 }, "geometry": { "type": "Point", "coordinates": [ -2.060070385174408, 48.582704513523161 ] } },
{ "type": "Feature", "properties": { "INSEE_COM": "35272", "NOM_COM_M": "SAINT GERMAIN DU PINEL", "ouvriers": 27.4, "retraites": 19.2, "prof_inter": 15.2, "sans_activ": 7.6, "employes": 18.3, "artisans": 3.8, "agriculteu": 4.6, "cadres": 3.8, "nbactif": 473 }, "geometry": { "type": "Point", "coordinates": [ -1.172682746259988, 48.004892679133071 ] } },
{ "type": "Feature", "properties": { "INSEE_COM": "35300", "NOM_COM_M": "SAINT M HERVE", "ouvriers": 20.8, "retraites": 28.5, "prof_inter": 14.0, "sans_activ": 12.6, "employes": 13.5, "artisans": 1.0, "agriculteu": 4.4, "cadres": 5.3, "nbactif": 650 }, "geometry": { "type": "Point", "coordinates": [ -1.11155847679584, 48.172501766371639 ] } },
{ "type": "Feature", "properties": { "INSEE_COM": "35087", "NOM_COM_M": "CORNILLE", "ouvriers": 28.7, "retraites": 12.5, "prof_inter": 14.7, "sans_activ": 11.3, "employes": 23.8, "artisans": 2.1, "agriculteu": 2.8, "cadres": 4.2, "nbactif": 519 }, "geometry": { "type": "Point", "coordinates": [ -1.31384409627787, 48.082325201760703 ] } },
{ "type": "Feature", "properties": { "INSEE_COM": "35283", "NOM_COM_M": "SAINT JEAN SUR VILAINE", "ouvriers": 18.0, "retraites": 18.4, "prof_inter": 22.7, "sans_activ": 10.6, "employes": 16.8, "artisans": 5.2, "agriculteu": 0.5, "cadres": 7.6, "nbactif": 661 }, "geometry": { "type": "Point", "coordinates": [ -1.339789165424217, 48.121188720797889 ] } },
{ "type": "Feature", "properties": { "INSEE_COM": "35088", "NOM_COM_M": "CORPS NUDS", "ouvriers": 10.9, "retraites": 25.9, "prof_inter": 16.5, "sans_activ": 15.6, "employes": 16.3, "artisans": 3.9, "agriculteu": 0.4, "cadres": 10.5, "nbactif": 1614 }, "geometry": { "type": "Point", "coordinates": [ -1.570166506213448, 47.98242546835553 ] } },
{ "type": "Feature", "properties": { "INSEE_COM": "35097", "NOM_COM_M": "DOMALAIN", "ouvriers": 27.5, "retraites": 23.7, "prof_inter": 13.1, "sans_activ": 9.1, "employes": 15.5, "artisans": 4.0, "agriculteu": 4.3, "cadres": 2.7, "nbactif": 992 }, "geometry": { "type": "Point", "coordinates": [ -1.239389977717645, 47.999193020399623 ] } },
{ "type": "Feature", "properties": { "INSEE_COM": "35089", "NOM_COM_M": "COUYERE", "ouvriers": 16.9, "retraites": 26.5, "prof_inter": 21.6, "sans_activ": 10.8, "employes": 18.0, "artisans": 0.0, "agriculteu": 2.5, "cadres": 3.6, "nbactif": 276 }, "geometry": { "type": "Point", "coordinates": [ -1.501739353022102, 47.894155892437979 ] } },
{ "type": "Feature", "properties": { "INSEE_COM": "35252", "NOM_COM_M": "SAINT AUBIN DES LANDES", "ouvriers": 31.9, "retraites": 24.5, "prof_inter": 10.5, "sans_activ": 7.8, "employes": 16.3, "artisans": 3.9, "agriculteu": 0.6, "cadres": 4.5, "nbactif": 483 }, "geometry": { "type": "Point", "coordinates": [ -1.29150187453549, 48.100366568474747 ] } },
{ "type": "Feature", "properties": { "INSEE_COM": "35101", "NOM_COM_M": "DOURDAIN", "ouvriers": 26.6, "retraites": 16.7, "prof_inter": 14.8, "sans_activ": 11.8, "employes": 17.9, "artisans": 4.3, "agriculteu": 2.5, "cadres": 5.5, "nbactif": 609 }, "geometry": { "type": "Point", "coordinates": [ -1.379900433974257, 48.193324192039711 ] } },
{ "type": "Feature", "properties": { "INSEE_COM": "35246", "NOM_COM_M": "ROZ LANDRIEUX", "ouvriers": 16.9, "retraites": 20.8, "prof_inter": 18.4, "sans_activ": 8.2, "employes": 20.3, "artisans": 5.8, "agriculteu": 4.4, "cadres": 5.3, "nbactif": 661 }, "geometry": { "type": "Point", "coordinates": [ -1.817514321407159, 48.54581771271959 ] } },
{ "type": "Feature", "properties": { "INSEE_COM": "35330", "NOM_COM_M": "TAILLIS", "ouvriers": 25.9, "retraites": 19.7, "prof_inter": 12.9, "sans_activ": 9.5, "employes": 20.4, "artisans": 2.7, "agriculteu": 5.4, "cadres": 3.4, "nbactif": 509 }, "geometry": { "type": "Point", "coordinates": [ -1.240050885704935, 48.184311659054842 ] } },
{ "type": "Feature", "properties": { "INSEE_COM": "35047", "NOM_COM_M": "BRUZ", "ouvriers": 8.8, "retraites": 21.3, "prof_inter": 17.0, "sans_activ": 21.1, "employes": 16.0, "artisans": 3.3, "agriculteu": 0.2, "cadres": 12.3, "nbactif": 8560 }, "geometry": { "type": "Point", "coordinates": [ -1.748505018855795, 48.025907518054964 ] } },
{ "type": "Feature", "properties": { "INSEE_COM": "35012", "NOM_COM_M": "BAIN DE BRETAGNE", "ouvriers": 14.6, "retraites": 29.0, "prof_inter": 14.8, "sans_activ": 13.8, "employes": 15.3, "artisans": 3.9, "agriculteu": 1.8, "cadres": 6.8, "nbactif": 3287 }, "geometry": { "type": "Point", "coordinates": [ -1.676337398726738, 47.830228334205835 ] } },
{ "type": "Feature", "properties": { "INSEE_COM": "35250", "NOM_COM_M": "SAINT ARMEL", "ouvriers": 10.2, "retraites": 22.8, "prof_inter": 21.7, "sans_activ": 8.7, "employes": 21.3, "artisans": 3.7, "agriculteu": 1.0, "cadres": 10.8, "nbactif": 1022 }, "geometry": { "type": "Point", "coordinates": [ -1.580560485561965, 48.013354444434043 ] } },
{ "type": "Feature", "properties": { "INSEE_COM": "35161", "NOM_COM_M": "LOUVIGNE DE BAIS", "ouvriers": 24.8, "retraites": 18.7, "prof_inter": 16.3, "sans_activ": 11.2, "employes": 18.4, "artisans": 2.7, "agriculteu": 1.4, "cadres": 6.5, "nbactif": 984 }, "geometry": { "type": "Point", "coordinates": [ -1.338702888399834, 48.052349345195445 ] } },
{ "type": "Feature", "properties": { "INSEE_COM": "35347", "NOM_COM_M": "VAL D IZE", "ouvriers": 18.7, "retraites": 24.0, "prof_inter": 16.9, "sans_activ": 10.5, "employes": 17.7, "artisans": 3.1, "agriculteu": 4.6, "cadres": 4.6, "nbactif": 1278 }, "geometry": { "type": "Point", "coordinates": [ -1.305076903426297, 48.189821450866141 ] } },
{ "type": "Feature", "properties": { "INSEE_COM": "35033", "NOM_COM_M": "BOURG DES COMPTES", "ouvriers": 16.9, "retraites": 21.8, "prof_inter": 20.2, "sans_activ": 9.0, "employes": 16.9, "artisans": 3.4, "agriculteu": 0.9, "cadres": 10.9, "nbactif": 1665 }, "geometry": { "type": "Point", "coordinates": [ -1.722278710129575, 47.921442742530047 ] } },
{ "type": "Feature", "properties": { "INSEE_COM": "35199", "NOM_COM_M": "MOUSSE", "ouvriers": 25.0, "retraites": 20.8, "prof_inter": 6.4, "sans_activ": 14.4, "employes": 25.0, "artisans": 2.1, "agriculteu": 0.0, "cadres": 6.4, "nbactif": 183 }, "geometry": { "type": "Point", "coordinates": [ -1.279407498435039, 47.917524026935197 ] } },
{ "type": "Feature", "properties": { "INSEE_COM": "35077", "NOM_COM_M": "CHELUN", "ouvriers": 25.6, "retraites": 19.7, "prof_inter": 13.8, "sans_activ": 7.9, "employes": 9.8, "artisans": 5.9, "agriculteu": 15.7, "cadres": 2.0, "nbactif": 170 }, "geometry": { "type": "Point", "coordinates": [ -1.243521810894737, 47.854858958930826 ] } },
{ "type": "Feature", "properties": { "INSEE_COM": "35238", "NOM_COM_M": "RENNES", "ouvriers": 8.4, "retraites": 19.1, "prof_inter": 14.2, "sans_activ": 27.0, "employes": 14.4, "artisans": 2.0, "agriculteu": 0.0, "cadres": 14.8, "nbactif": 100693 }, "geometry": { "type": "Point", "coordinates": [ -1.681868432132625, 48.111680590398429 ] } },
{ "type": "Feature", "properties": { "INSEE_COM": "35221", "NOM_COM_M": "PLECHATEL", "ouvriers": 18.7, "retraites": 25.6, "prof_inter": 15.5, "sans_activ": 13.6, "employes": 17.3, "artisans": 3.1, "agriculteu": 1.3, "cadres": 4.9, "nbactif": 1350 }, "geometry": { "type": "Point", "coordinates": [ -1.734109953896789, 47.875175172847236 ] } },
{ "type": "Feature", "properties": { "INSEE_COM": "35289", "NOM_COM_M": "SAINT MALO DE PHILY", "ouvriers": 21.8, "retraites": 18.1, "prof_inter": 15.1, "sans_activ": 10.3, "employes": 23.6, "artisans": 2.4, "agriculteu": 1.8, "cadres": 6.6, "nbactif": 552 }, "geometry": { "type": "Point", "coordinates": [ -1.80539898694627, 47.867840530836268 ] } },
{ "type": "Feature", "properties": { "INSEE_COM": "35102", "NOM_COM_M": "DROUGES", "ouvriers": 27.7, "retraites": 28.2, "prof_inter": 14.2, "sans_activ": 7.7, "employes": 14.2, "artisans": 2.6, "agriculteu": 2.6, "cadres": 2.6, "nbactif": 277 }, "geometry": { "type": "Point", "coordinates": [ -1.260199192895042, 47.902173796318678 ] } },
{ "type": "Feature", "properties": { "INSEE_COM": "35031", "NOM_COM_M": "BOUEXIERE", "ouvriers": 14.9, "retraites": 24.9, "prof_inter": 19.0, "sans_activ": 9.5, "employes": 19.5, "artisans": 4.1, "agriculteu": 0.6, "cadres": 7.5, "nbactif": 2169 }, "geometry": { "type": "Point", "coordinates": [ -1.437022325946734, 48.174544341217441 ] } },
{ "type": "Feature", "properties": { "INSEE_COM": "35076", "NOM_COM_M": "CHAVAGNE", "ouvriers": 11.4, "retraites": 29.6, "prof_inter": 19.4, "sans_activ": 12.3, "employes": 15.1, "artisans": 1.9, "agriculteu": 0.5, "cadres": 9.9, "nbactif": 1842 }, "geometry": { "type": "Point", "coordinates": [ -1.786548626497587, 48.056319697604359 ] } },
{ "type": "Feature", "properties": { "INSEE_COM": "35198", "NOM_COM_M": "MOULINS", "ouvriers": 17.7, "retraites": 17.5, "prof_inter": 19.5, "sans_activ": 12.0, "employes": 19.5, "artisans": 2.8, "agriculteu": 3.7, "cadres": 7.4, "nbactif": 387 }, "geometry": { "type": "Point", "coordinates": [ -1.362905675767967, 48.008786393738838 ] } },
{ "type": "Feature", "properties": { "INSEE_COM": "35322", "NOM_COM_M": "SEL DE BRETAGNE", "ouvriers": 24.7, "retraites": 25.2, "prof_inter": 15.5, "sans_activ": 7.8, "employes": 19.5, "artisans": 3.2, "agriculteu": 0.6, "cadres": 3.2, "nbactif": 491 }, "geometry": { "type": "Point", "coordinates": [ -1.606299131416258, 47.898025675323723 ] } },
{ "type": "Feature", "properties": { "INSEE_COM": "35136", "NOM_COM_M": "JANZE", "ouvriers": 15.8, "retraites": 28.1, "prof_inter": 15.5, "sans_activ": 11.9, "employes": 17.2, "artisans": 2.8, "agriculteu": 1.1, "cadres": 7.4, "nbactif": 3908 }, "geometry": { "type": "Point", "coordinates": [ -1.500825330966733, 47.94281371891163 ] } },
{ "type": "Feature", "properties": { "INSEE_COM": "35032", "NOM_COM_M": "BOURGBARRE", "ouvriers": 14.4, "retraites": 20.3, "prof_inter": 20.9, "sans_activ": 12.2, "employes": 16.7, "artisans": 3.6, "agriculteu": 1.2, "cadres": 10.5, "nbactif": 2090 }, "geometry": { "type": "Point", "coordinates": [ -1.622404604601235, 47.988622040796244 ] } },
{ "type": "Feature", "properties": { "INSEE_COM": "35041", "NOM_COM_M": "BRIE", "ouvriers": 17.7, "retraites": 15.1, "prof_inter": 19.4, "sans_activ": 15.0, "employes": 16.8, "artisans": 5.0, "agriculteu": 4.3, "cadres": 6.7, "nbactif": 502 }, "geometry": { "type": "Point", "coordinates": [ -1.55056472282455, 47.951362725898974 ] } },
{ "type": "Feature", "properties": { "INSEE_COM": "35166", "NOM_COM_M": "MARPIRE", "ouvriers": 25.6, "retraites": 14.7, "prof_inter": 17.3, "sans_activ": 11.5, "employes": 18.6, "artisans": 1.9, "agriculteu": 3.2, "cadres": 7.1, "nbactif": 574 }, "geometry": { "type": "Point", "coordinates": [ -1.352562387889426, 48.147043210481257 ] } },
{ "type": "Feature", "properties": { "INSEE_COM": "35350", "NOM_COM_M": "VERGEAL", "ouvriers": 30.4, "retraites": 13.4, "prof_inter": 18.8, "sans_activ": 7.1, "employes": 18.8, "artisans": 1.8, "agriculteu": 3.6, "cadres": 6.2, "nbactif": 427 }, "geometry": { "type": "Point", "coordinates": [ -1.255655898306443, 48.03592655311035 ] } },
{ "type": "Feature", "properties": { "INSEE_COM": "35343", "NOM_COM_M": "TRESBOEUF", "ouvriers": 19.8, "retraites": 23.0, "prof_inter": 9.6, "sans_activ": 11.8, "employes": 19.3, "artisans": 2.6, "agriculteu": 5.4, "cadres": 8.5, "nbactif": 637 }, "geometry": { "type": "Point", "coordinates": [ -1.553520396977097, 47.88050013022076 ] } },
{ "type": "Feature", "properties": { "INSEE_COM": "35069", "NOM_COM_M": "CHATEAUGIRON", "ouvriers": 11.6, "retraites": 21.5, "prof_inter": 22.3, "sans_activ": 11.5, "employes": 14.5, "artisans": 3.2, "agriculteu": 0.3, "cadres": 15.1, "nbactif": 5012 }, "geometry": { "type": "Point", "coordinates": [ -1.474640579583357, 48.048969008281446 ] } },
{ "type": "Feature", "properties": { "INSEE_COM": "35052", "NOM_COM_M": "CHAMPEAUX", "ouvriers": 9.3, "retraites": 21.3, "prof_inter": 18.7, "sans_activ": 8.0, "employes": 22.7, "artisans": 5.3, "agriculteu": 4.0, "cadres": 10.7, "nbactif": 274 }, "geometry": { "type": "Point", "coordinates": [ -1.300822309510233, 48.138859864873169 ] } },
{ "type": "Feature", "properties": { "INSEE_COM": "35109", "NOM_COM_M": "ETRELLES", "ouvriers": 14.4, "retraites": 22.1, "prof_inter": 18.1, "sans_activ": 12.9, "employes": 17.1, "artisans": 4.2, "agriculteu": 5.2, "cadres": 6.0, "nbactif": 1273 }, "geometry": { "type": "Point", "coordinates": [ -1.215964032347435, 48.069744208002241 ] } },
{ "type": "Feature", "properties": { "INSEE_COM": "35014", "NOM_COM_M": "BAIS", "ouvriers": 28.3, "retraites": 28.6, "prof_inter": 10.9, "sans_activ": 9.2, "employes": 12.3, "artisans": 2.8, "agriculteu": 3.4, "cadres": 4.5, "nbactif": 1124 }, "geometry": { "type": "Point", "coordinates": [ -1.305389894106782, 48.011076814282376 ] } },
{ "type": "Feature", "properties": { "INSEE_COM": "35281", "NOM_COM_M": "SAINT JACQUES DE LA LANDE", "ouvriers": 12.9, "retraites": 15.6, "prof_inter": 20.1, "sans_activ": 16.6, "employes": 22.6, "artisans": 2.4, "agriculteu": 0.1, "cadres": 9.5, "nbactif": 7156 }, "geometry": { "type": "Point", "coordinates": [ -1.722558376272668, 48.07612110454194 ] } },
{ "type": "Feature", "properties": { "INSEE_COM": "35114", "NOM_COM_M": "FORGES LA FORET", "ouvriers": 28.8, "retraites": 24.1, "prof_inter": 9.4, "sans_activ": 14.2, "employes": 7.1, "artisans": 4.7, "agriculteu": 9.4, "cadres": 2.4, "nbactif": 126 }, "geometry": { "type": "Point", "coordinates": [ -1.292910517539838, 47.861557715410406 ] } },
{ "type": "Feature", "properties": { "INSEE_COM": "35090", "NOM_COM_M": "CREVIN", "ouvriers": 18.4, "retraites": 17.9, "prof_inter": 17.5, "sans_activ": 14.6, "employes": 17.9, "artisans": 6.2, "agriculteu": 0.2, "cadres": 7.2, "nbactif": 1421 }, "geometry": { "type": "Point", "coordinates": [ -1.656786518749049, 47.930329568109293 ] } },
{ "type": "Feature", "properties": { "INSEE_COM": "35335", "NOM_COM_M": "THOURIE", "ouvriers": 17.8, "retraites": 16.9, "prof_inter": 13.5, "sans_activ": 18.8, "employes": 16.1, "artisans": 5.1, "agriculteu": 7.6, "cadres": 4.2, "nbactif": 390 }, "geometry": { "type": "Point", "coordinates": [ -1.458035526308836, 47.848550205913632 ] } },
{ "type": "Feature", "properties": { "INSEE_COM": "35051", "NOM_COM_M": "CESSON SEVIGNE", "ouvriers": 5.3, "retraites": 28.2, "prof_inter": 14.3, "sans_activ": 20.0, "employes": 10.2, "artisans": 2.2, "agriculteu": 0.3, "cadres": 19.5, "nbactif": 7701 }, "geometry": { "type": "Point", "coordinates": [ -1.597239550486333, 48.120396624622316 ] } },
{ "type": "Feature", "properties": { "INSEE_COM": "35338", "NOM_COM_M": "TORCE", "ouvriers": 29.9, "retraites": 17.4, "prof_inter": 16.1, "sans_activ": 8.8, "employes": 13.2, "artisans": 6.1, "agriculteu": 5.0, "cadres": 3.3, "nbactif": 647 }, "geometry": { "type": "Point", "coordinates": [ -1.270682213147994, 48.061285130753994 ] } },
{ "type": "Feature", "properties": { "INSEE_COM": "35141", "NOM_COM_M": "LANDAVRAN", "ouvriers": 23.5, "retraites": 9.9, "prof_inter": 18.6, "sans_activ": 16.6, "employes": 16.6, "artisans": 4.0, "agriculteu": 5.9, "cadres": 4.9, "nbactif": 367 }, "geometry": { "type": "Point", "coordinates": [ -1.284832808684219, 48.161005561797936 ] } },
{ "type": "Feature", "properties": { "INSEE_COM": "35005", "NOM_COM_M": "ARBRISSEL", "ouvriers": 26.8, "retraites": 17.1, "prof_inter": 12.2, "sans_activ": 12.2, "employes": 26.8, "artisans": 2.4, "agriculteu": 0.0, "cadres": 2.4, "nbactif": 161 }, "geometry": { "type": "Point", "coordinates": [ -1.29496957589176, 47.92705608737986 ] } },
{ "type": "Feature", "properties": { "INSEE_COM": "35235", "NOM_COM_M": "RANNEE", "ouvriers": 28.6, "retraites": 31.4, "prof_inter": 8.0, "sans_activ": 8.0, "employes": 14.3, "artisans": 4.6, "agriculteu": 2.8, "cadres": 2.3, "nbactif": 530 }, "geometry": { "type": "Point", "coordinates": [ -1.226904354953769, 47.900378028827802 ] } },
{ "type": "Feature", "properties": { "INSEE_COM": "35359", "NOM_COM_M": "VISSEICHE", "ouvriers": 26.0, "retraites": 23.7, "prof_inter": 10.4, "sans_activ": 11.9, "employes": 16.4, "artisans": 0.8, "agriculteu": 7.4, "cadres": 3.8, "nbactif": 403 }, "geometry": { "type": "Point", "coordinates": [ -1.298476099789117, 47.960293849989171 ] } },
{ "type": "Feature", "properties": { "INSEE_COM": "35278", "NOM_COM_M": "SAINT GREGOIRE", "ouvriers": 4.3, "retraites": 23.9, "prof_inter": 18.1, "sans_activ": 16.1, "employes": 12.9, "artisans": 3.5, "agriculteu": 0.3, "cadres": 20.9, "nbactif": 4643 }, "geometry": { "type": "Point", "coordinates": [ -1.685333206849529, 48.158493513644942 ] } },
{ "type": "Feature", "properties": { "INSEE_COM": "35208", "NOM_COM_M": "ORGERES", "ouvriers": 12.3, "retraites": 21.6, "prof_inter": 20.0, "sans_activ": 13.5, "employes": 18.3, "artisans": 3.3, "agriculteu": 0.5, "cadres": 10.5, "nbactif": 2274 }, "geometry": { "type": "Point", "coordinates": [ -1.665761577320636, 47.985214343553686 ] } },
{ "type": "Feature", "properties": { "INSEE_COM": "35321", "NOM_COM_M": "SAULNIERES", "ouvriers": 25.0, "retraites": 22.6, "prof_inter": 15.9, "sans_activ": 10.8, "employes": 15.9, "artisans": 2.6, "agriculteu": 3.4, "cadres": 4.1, "nbactif": 367 }, "geometry": { "type": "Point", "coordinates": [ -1.577840163326407, 47.919204230734351 ] } },
{ "type": "Feature", "properties": { "INSEE_COM": "35206", "NOM_COM_M": "NOYAL CHATILLON SUR SEICHE", "ouvriers": 8.3, "retraites": 26.4, "prof_inter": 18.8, "sans_activ": 14.4, "employes": 16.0, "artisans": 4.3, "agriculteu": 1.0, "cadres": 10.8, "nbactif": 3380 }, "geometry": { "type": "Point", "coordinates": [ -1.662725504003275, 48.052295608503627 ] } },
{ "type": "Feature", "properties": { "INSEE_COM": "35059", "NOM_COM_M": "CHAPELLE DES FOUGERETZ", "ouvriers": 11.6, "retraites": 21.0, "prof_inter": 18.7, "sans_activ": 12.2, "employes": 19.0, "artisans": 2.0, "agriculteu": 0.5, "cadres": 14.9, "nbactif": 2425 }, "geometry": { "type": "Point", "coordinates": [ -1.741312763509885, 48.177083064825055 ] } },
{ "type": "Feature", "properties": { "INSEE_COM": "35131", "NOM_COM_M": "HERMITAGE", "ouvriers": 12.5, "retraites": 30.8, "prof_inter": 17.3, "sans_activ": 12.1, "employes": 15.9, "artisans": 2.5, "agriculteu": 0.3, "cadres": 8.5, "nbactif": 2101 }, "geometry": { "type": "Point", "coordinates": [ -1.816340852540631, 48.122105141360251 ] } },
{ "type": "Feature", "properties": { "INSEE_COM": "35039", "NOM_COM_M": "BRECE", "ouvriers": 18.2, "retraites": 16.5, "prof_inter": 17.1, "sans_activ": 10.3, "employes": 19.9, "artisans": 1.7, "agriculteu": 1.3, "cadres": 15.0, "nbactif": 1077 }, "geometry": { "type": "Point", "coordinates": [ -1.489808574493618, 48.110479578759453 ] } },
{ "type": "Feature", "properties": { "INSEE_COM": "35125", "NOM_COM_M": "GUERCHE DE BRETAGNE", "ouvriers": 17.6, "retraites": 40.0, "prof_inter": 9.6, "sans_activ": 11.4, "employes": 14.7, "artisans": 3.2, "agriculteu": 1.0, "cadres": 2.5, "nbactif": 1658 }, "geometry": { "type": "Point", "coordinates": [ -1.24322481923006, 47.943909384373086 ] } },
{ "type": "Feature", "properties": { "INSEE_COM": "35218", "NOM_COM_M": "PETIT FOUGERAY", "ouvriers": 31.5, "retraites": 12.9, "prof_inter": 15.3, "sans_activ": 9.6, "employes": 16.9, "artisans": 3.2, "agriculteu": 2.4, "cadres": 8.0, "nbactif": 485 }, "geometry": { "type": "Point", "coordinates": [ -1.616225987292589, 47.927969538478202 ] } },
{ "type": "Feature", "properties": { "INSEE_COM": "35264", "NOM_COM_M": "SAINT DIDIER", "ouvriers": 21.6, "retraites": 17.9, "prof_inter": 16.8, "sans_activ": 10.3, "employes": 19.5, "artisans": 5.7, "agriculteu": 0.3, "cadres": 7.8, "nbactif": 1073 }, "geometry": { "type": "Point", "coordinates": [ -1.357951080583738, 48.093264950061197 ] } },
{ "type": "Feature", "properties": { "INSEE_COM": "35262", "NOM_COM_M": "SAINTE COLOMBE", "ouvriers": 24.0, "retraites": 18.6, "prof_inter": 14.8, "sans_activ": 9.1, "employes": 11.0, "artisans": 5.7, "agriculteu": 14.8, "cadres": 1.9, "nbactif": 170 }, "geometry": { "type": "Point", "coordinates": [ -1.457511298089049, 47.89537021169911 ] } },
{ "type": "Feature", "properties": { "INSEE_COM": "35239", "NOM_COM_M": "RETIERS", "ouvriers": 17.2, "retraites": 29.8, "prof_inter": 10.5, "sans_activ": 13.0, "employes": 19.7, "artisans": 3.2, "agriculteu": 1.6, "cadres": 5.0, "nbactif": 1866 }, "geometry": { "type": "Point", "coordinates": [ -1.3437525560304, 47.905813733407101 ] } },
{ "type": "Feature", "properties": { "INSEE_COM": "35028", "NOM_COM_M": "BOISTRUDAN", "ouvriers": 27.4, "retraites": 20.7, "prof_inter": 13.2, "sans_activ": 12.3, "employes": 15.1, "artisans": 1.9, "agriculteu": 5.7, "cadres": 3.8, "nbactif": 349 }, "geometry": { "type": "Point", "coordinates": [ -1.397422451025372, 47.975499281821179 ] } },
{ "type": "Feature", "properties": { "INSEE_COM": "35353", "NOM_COM_M": "VEZIN LE COQUET", "ouvriers": 6.7, "retraites": 27.1, "prof_inter": 15.6, "sans_activ": 28.7, "employes": 11.0, "artisans": 2.1, "agriculteu": 0.1, "cadres": 8.6, "nbactif": 2190 }, "geometry": { "type": "Point", "coordinates": [ -1.749249057421958, 48.117672275245646 ] } },
{ "type": "Feature", "properties": { "INSEE_COM": "35363", "NOM_COM_M": "PONT PEAN", "ouvriers": 14.4, "retraites": 17.1, "prof_inter": 22.2, "sans_activ": 12.9, "employes": 18.4, "artisans": 3.7, "agriculteu": 0.0, "cadres": 11.4, "nbactif": 2221 }, "geometry": { "type": "Point", "coordinates": [ -1.696372520705516, 48.010946614378724 ] } },
{ "type": "Feature", "properties": { "INSEE_COM": "35152", "NOM_COM_M": "LIFFRE", "ouvriers": 11.1, "retraites": 26.4, "prof_inter": 16.1, "sans_activ": 11.8, "employes": 17.4, "artisans": 3.2, "agriculteu": 1.4, "cadres": 12.7, "nbactif": 3693 }, "geometry": { "type": "Point", "coordinates": [ -1.514394674325566, 48.204135382507459 ] } },
{ "type": "Feature", "properties": { "INSEE_COM": "35080", "NOM_COM_M": "CINTRE", "ouvriers": 9.8, "retraites": 18.1, "prof_inter": 19.9, "sans_activ": 18.5, "employes": 17.7, "artisans": 4.2, "agriculteu": 0.6, "cadres": 11.2, "nbactif": 1110 }, "geometry": { "type": "Point", "coordinates": [ -1.885948053352146, 48.108594017957209 ] } },
{ "type": "Feature", "properties": { "INSEE_COM": "35244", "NOM_COM_M": "ROMAZY", "ouvriers": 21.4, "retraites": 28.6, "prof_inter": 16.7, "sans_activ": 9.5, "employes": 14.3, "artisans": 2.4, "agriculteu": 4.8, "cadres": 2.4, "nbactif": 113 }, "geometry": { "type": "Point", "coordinates": [ -1.493197333678514, 48.380548666969865 ] } },
{ "type": "Feature", "properties": { "INSEE_COM": "35316", "NOM_COM_M": "SAINT SULPICE DES LANDES", "ouvriers": 26.8, "retraites": 25.3, "prof_inter": 8.3, "sans_activ": 15.1, "employes": 16.0, "artisans": 2.5, "agriculteu": 4.2, "cadres": 1.7, "nbactif": 377 }, "geometry": { "type": "Point", "coordinates": [ -1.625720351521016, 47.776961772734026 ] } },
{ "type": "Feature", "properties": { "INSEE_COM": "35287", "NOM_COM_M": "SAINT LUNAIRE", "ouvriers": 5.1, "retraites": 45.4, "prof_inter": 12.4, "sans_activ": 9.4, "employes": 13.8, "artisans": 7.0, "agriculteu": 0.0, "cadres": 6.8, "nbactif": 923 }, "geometry": { "type": "Point", "coordinates": [ -2.09678446058822, 48.620039540088115 ] } },
{ "type": "Feature", "properties": { "INSEE_COM": "35105", "NOM_COM_M": "ERBREE", "ouvriers": 22.3, "retraites": 24.4, "prof_inter": 16.4, "sans_activ": 10.2, "employes": 14.9, "artisans": 2.6, "agriculteu": 4.4, "cadres": 4.8, "nbactif": 871 }, "geometry": { "type": "Point", "coordinates": [ -1.116870522642541, 48.10933605624809 ] } },
{ "type": "Feature", "properties": { "INSEE_COM": "35227", "NOM_COM_M": "PLEUMELEUC", "ouvriers": 16.0, "retraites": 19.4, "prof_inter": 19.4, "sans_activ": 10.5, "employes": 21.0, "artisans": 1.8, "agriculteu": 2.6, "cadres": 9.3, "nbactif": 1710 }, "geometry": { "type": "Point", "coordinates": [ -1.893571077367114, 48.183418348474611 ] } },
{ "type": "Feature", "properties": { "INSEE_COM": "35234", "NOM_COM_M": "QUEDILLAC", "ouvriers": 18.6, "retraites": 29.5, "prof_inter": 18.0, "sans_activ": 8.2, "employes": 13.7, "artisans": 4.4, "agriculteu": 4.4, "cadres": 3.3, "nbactif": 566 }, "geometry": { "type": "Point", "coordinates": [ -2.143753605214464, 48.237787691349681 ] } },
{ "type": "Feature", "properties": { "INSEE_COM": "35170", "NOM_COM_M": "MECE", "ouvriers": 25.6, "retraites": 25.4, "prof_inter": 13.7, "sans_activ": 12.9, "employes": 11.6, "artisans": 5.3, "agriculteu": 3.2, "cadres": 2.1, "nbactif": 292 }, "geometry": { "type": "Point", "coordinates": [ -1.286498147312565, 48.241175314146638 ] } },
{ "type": "Feature", "properties": { "INSEE_COM": "35185", "NOM_COM_M": "MONTAUTOUR", "ouvriers": 24.9, "retraites": 17.4, "prof_inter": 7.5, "sans_activ": 17.4, "employes": 12.4, "artisans": 10.0, "agriculteu": 7.5, "cadres": 2.5, "nbactif": 133 }, "geometry": { "type": "Point", "coordinates": [ -1.120832187720602, 48.204674357577915 ] } },
{ "type": "Feature", "properties": { "INSEE_COM": "35055", "NOM_COM_M": "CHANTEPIE", "ouvriers": 9.5, "retraites": 24.2, "prof_inter": 20.0, "sans_activ": 12.4, "employes": 18.3, "artisans": 2.7, "agriculteu": 0.1, "cadres": 12.7, "nbactif": 5337 }, "geometry": { "type": "Point", "coordinates": [ -1.603860463910054, 48.08202780841836 ] } },
{ "type": "Feature", "properties": { "INSEE_COM": "35183", "NOM_COM_M": "MONDEVERT", "ouvriers": 34.2, "retraites": 12.2, "prof_inter": 15.8, "sans_activ": 15.7, "employes": 11.1, "artisans": 4.7, "agriculteu": 1.6, "cadres": 4.9, "nbactif": 439 }, "geometry": { "type": "Point", "coordinates": [ -1.090382459957068, 48.084506162298304 ] } },
{ "type": "Feature", "properties": { "INSEE_COM": "35360", "NOM_COM_M": "VITRE", "ouvriers": 16.7, "retraites": 29.2, "prof_inter": 15.4, "sans_activ": 13.1, "employes": 14.8, "artisans": 3.2, "agriculteu": 0.5, "cadres": 7.2, "nbactif": 8516 }, "geometry": { "type": "Point", "coordinates": [ -1.193479822315047, 48.114108652668726 ] } },
{ "type": "Feature", "properties": { "INSEE_COM": "35119", "NOM_COM_M": "GENNES SUR SEICHE", "ouvriers": 18.7, "retraites": 30.4, "prof_inter": 11.1, "sans_activ": 6.7, "employes": 17.5, "artisans": 5.1, "agriculteu": 5.1, "cadres": 5.1, "nbactif": 468 }, "geometry": { "type": "Point", "coordinates": [ -1.13291048284918, 47.997953962927383 ] } },
{ "type": "Feature", "properties": { "INSEE_COM": "35008", "NOM_COM_M": "AVAILLES SUR SEICHE", "ouvriers": 27.5, "retraites": 28.1, "prof_inter": 9.4, "sans_activ": 13.2, "employes": 15.3, "artisans": 1.9, "agriculteu": 1.9, "cadres": 2.8, "nbactif": 331 }, "geometry": { "type": "Point", "coordinates": [ -1.185598229062992, 47.958112370710275 ] } },
{ "type": "Feature", "properties": { "INSEE_COM": "35217", "NOM_COM_M": "PERTRE", "ouvriers": 20.9, "retraites": 33.2, "prof_inter": 13.6, "sans_activ": 8.8, "employes": 12.5, "artisans": 1.8, "agriculteu": 3.6, "cadres": 5.7, "nbactif": 622 }, "geometry": { "type": "Point", "coordinates": [ -1.05607623111633, 48.034599937734619 ] } },
{ "type": "Feature", "properties": { "INSEE_COM": "35275", "NOM_COM_M": "SAINT GILLES", "ouvriers": 11.2, "retraites": 25.6, "prof_inter": 18.6, "sans_activ": 12.9, "employes": 17.4, "artisans": 3.9, "agriculteu": 0.5, "cadres": 9.8, "nbactif": 2315 }, "geometry": { "type": "Point", "coordinates": [ -1.853798195319542, 48.152246782312019 ] } },
{ "type": "Feature", "properties": { "INSEE_COM": "35203", "NOM_COM_M": "NOUAYE", "ouvriers": 13.5, "retraites": 8.7, "prof_inter": 26.5, "sans_activ": 8.7, "employes": 22.2, "artisans": 2.2, "agriculteu": 0.0, "cadres": 17.8, "nbactif": 181 }, "geometry": { "type": "Point", "coordinates": [ -1.974724855586007, 48.166354195470333 ] } },
{ "type": "Feature", "properties": { "INSEE_COM": "35200", "NOM_COM_M": "MOUTIERS", "ouvriers": 25.0, "retraites": 25.7, "prof_inter": 14.0, "sans_activ": 10.3, "employes": 14.0, "artisans": 0.7, "agriculteu": 8.1, "cadres": 2.2, "nbactif": 447 }, "geometry": { "type": "Point", "coordinates": [ -1.205229673564143, 47.976030767090123 ] } },
{ "type": "Feature", "properties": { "INSEE_COM": "35295", "NOM_COM_M": "SAINT MAUGAN", "ouvriers": 21.8, "retraites": 18.0, "prof_inter": 18.0, "sans_activ": 14.5, "employes": 10.8, "artisans": 6.1, "agriculteu": 3.5, "cadres": 7.3, "nbactif": 267 }, "geometry": { "type": "Point", "coordinates": [ -2.102190859419748, 48.136724691893377 ] } },
{ "type": "Feature", "properties": { "INSEE_COM": "35351", "NOM_COM_M": "VERGER", "ouvriers": 21.8, "retraites": 14.8, "prof_inter": 14.8, "sans_activ": 13.9, "employes": 20.8, "artisans": 3.2, "agriculteu": 0.5, "cadres": 10.2, "nbactif": 752 }, "geometry": { "type": "Point", "coordinates": [ -1.936320039692816, 48.06581625058093 ] } },
{ "type": "Feature", "properties": { "INSEE_COM": "35023", "NOM_COM_M": "BEDEE", "ouvriers": 14.2, "retraites": 22.1, "prof_inter": 19.9, "sans_activ": 8.5, "employes": 18.2, "artisans": 4.9, "agriculteu": 3.4, "cadres": 8.7, "nbactif": 2210 }, "geometry": { "type": "Point", "coordinates": [ -1.950021696723393, 48.186742965590497 ] } },
{ "type": "Feature", "properties": { "INSEE_COM": "35027", "NOM_COM_M": "BOISGERVILLY", "ouvriers": 19.2, "retraites": 24.4, "prof_inter": 13.8, "sans_activ": 9.1, "employes": 20.8, "artisans": 5.0, "agriculteu": 4.1, "cadres": 3.7, "nbactif": 842 }, "geometry": { "type": "Point", "coordinates": [ -2.083576325344988, 48.166813111588439 ] } },
{ "type": "Feature", "properties": { "INSEE_COM": "35196", "NOM_COM_M": "MORDELLES", "ouvriers": 11.7, "retraites": 28.3, "prof_inter": 16.4, "sans_activ": 13.1, "employes": 16.6, "artisans": 3.5, "agriculteu": 1.1, "cadres": 9.1, "nbactif": 3514 }, "geometry": { "type": "Point", "coordinates": [ -1.84265664692163, 48.085915181254549 ] } },
{ "type": "Feature", "properties": { "INSEE_COM": "35133", "NOM_COM_M": "IFFENDIC", "ouvriers": 17.1, "retraites": 23.2, "prof_inter": 15.2, "sans_activ": 12.4, "employes": 18.2, "artisans": 2.6, "agriculteu": 3.7, "cadres": 7.7, "nbactif": 2173 }, "geometry": { "type": "Point", "coordinates": [ -2.024153222040823, 48.113967559239754 ] } },
{ "type": "Feature", "properties": { "INSEE_COM": "35026", "NOM_COM_M": "BLERUAIS", "ouvriers": 27.8, "retraites": 11.1, "prof_inter": 5.6, "sans_activ": 5.6, "employes": 33.3, "artisans": 5.6, "agriculteu": 11.1, "cadres": 0.0, "nbactif": 57 }, "geometry": { "type": "Point", "coordinates": [ -2.115549234641834, 48.115853482954051 ] } },
{ "type": "Feature", "properties": { "INSEE_COM": "35320", "NOM_COM_M": "SAINT UNIAC", "ouvriers": 23.2, "retraites": 22.0, "prof_inter": 13.4, "sans_activ": 11.0, "employes": 22.0, "artisans": 2.4, "agriculteu": 0.0, "cadres": 6.1, "nbactif": 265 }, "geometry": { "type": "Point", "coordinates": [ -2.032798720085014, 48.166998132271672 ] } },
{ "type": "Feature", "properties": { "INSEE_COM": "35331", "NOM_COM_M": "TALENSAC", "ouvriers": 15.0, "retraites": 22.9, "prof_inter": 16.5, "sans_activ": 13.0, "employes": 17.2, "artisans": 5.2, "agriculteu": 1.7, "cadres": 8.6, "nbactif": 1219 }, "geometry": { "type": "Point", "coordinates": [ -1.926129351371003, 48.091169284712208 ] } },
{ "type": "Feature", "properties": { "INSEE_COM": "35290", "NOM_COM_M": "SAINT MALON SUR MEL", "ouvriers": 28.6, "retraites": 20.9, "prof_inter": 19.8, "sans_activ": 7.7, "employes": 12.1, "artisans": 4.4, "agriculteu": 5.5, "cadres": 1.1, "nbactif": 297 }, "geometry": { "type": "Point", "coordinates": [ -2.111532264951995, 48.094372445592995 ] } },
{ "type": "Feature", "properties": { "INSEE_COM": "35312", "NOM_COM_M": "SAINT SENOUX", "ouvriers": 14.5, "retraites": 20.7, "prof_inter": 24.4, "sans_activ": 11.9, "employes": 13.4, "artisans": 4.1, "agriculteu": 1.1, "cadres": 10.0, "nbactif": 926 }, "geometry": { "type": "Point", "coordinates": [ -1.790015038772314, 47.91000145741706 ] } },
{ "type": "Feature", "properties": { "INSEE_COM": "35106", "NOM_COM_M": "ERCE EN LAMEE", "ouvriers": 19.0, "retraites": 27.6, "prof_inter": 11.6, "sans_activ": 10.3, "employes": 16.8, "artisans": 4.3, "agriculteu": 6.5, "cadres": 3.9, "nbactif": 674 }, "geometry": { "type": "Point", "coordinates": [ -1.582420999264488, 47.817936602728466 ] } },
{ "type": "Feature", "properties": { "INSEE_COM": "35167", "NOM_COM_M": "MARTIGNE FERCHAUD", "ouvriers": 19.2, "retraites": 39.2, "prof_inter": 8.5, "sans_activ": 10.1, "employes": 11.0, "artisans": 3.2, "agriculteu": 5.9, "cadres": 3.0, "nbactif": 1092 }, "geometry": { "type": "Point", "coordinates": [ -1.327630490252291, 47.828492522807949 ] } },
{ "type": "Feature", "properties": { "INSEE_COM": "35103", "NOM_COM_M": "EANCE", "ouvriers": 19.3, "retraites": 24.4, "prof_inter": 14.5, "sans_activ": 11.3, "employes": 9.6, "artisans": 3.2, "agriculteu": 11.3, "cadres": 6.4, "nbactif": 193 }, "geometry": { "type": "Point", "coordinates": [ -1.251937767553183, 47.823720327749058 ] } },
{ "type": "Feature", "properties": { "INSEE_COM": "35168", "NOM_COM_M": "VAL D ANAST", "ouvriers": 20.1, "retraites": 29.7, "prof_inter": 9.3, "sans_activ": 10.0, "employes": 18.6, "artisans": 4.7, "agriculteu": 3.3, "cadres": 4.4, "nbactif": 1766 }, "geometry": { "type": "Point", "coordinates": [ -1.999497363849631, 47.903008859262684 ] } },
{ "type": "Feature", "properties": { "INSEE_COM": "35175", "NOM_COM_M": "MERNEL", "ouvriers": 19.1, "retraites": 26.1, "prof_inter": 11.3, "sans_activ": 12.6, "employes": 19.9, "artisans": 6.3, "agriculteu": 0.6, "cadres": 4.1, "nbactif": 508 }, "geometry": { "type": "Point", "coordinates": [ -1.95287457887663, 47.898752250171057 ] } },
{ "type": "Feature", "properties": { "INSEE_COM": "35035", "NOM_COM_M": "BOVEL", "ouvriers": 19.1, "retraites": 21.5, "prof_inter": 16.7, "sans_activ": 13.2, "employes": 9.4, "artisans": 4.7, "agriculteu": 3.5, "cadres": 12.0, "nbactif": 289 }, "geometry": { "type": "Point", "coordinates": [ -1.959769711026373, 47.956771913941111 ] } },
{ "type": "Feature", "properties": { "INSEE_COM": "35311", "NOM_COM_M": "SAINT SEGLIN", "ouvriers": 24.5, "retraites": 32.3, "prof_inter": 7.8, "sans_activ": 10.1, "employes": 17.8, "artisans": 3.4, "agriculteu": 2.3, "cadres": 2.3, "nbactif": 256 }, "geometry": { "type": "Point", "coordinates": [ -2.026009959288133, 47.851771418379961 ] } },
{ "type": "Feature", "properties": { "INSEE_COM": "35223", "NOM_COM_M": "PLELAN LE GRAND", "ouvriers": 17.4, "retraites": 32.0, "prof_inter": 12.6, "sans_activ": 8.7, "employes": 16.4, "artisans": 3.9, "agriculteu": 3.9, "cadres": 4.9, "nbactif": 1748 }, "geometry": { "type": "Point", "coordinates": [ -2.079871257963169, 47.996655822957976 ] } },
{ "type": "Feature", "properties": { "INSEE_COM": "35046", "NOM_COM_M": "BRULAIS", "ouvriers": 25.2, "retraites": 24.7, "prof_inter": 9.9, "sans_activ": 7.7, "employes": 23.7, "artisans": 4.0, "agriculteu": 4.9, "cadres": 0.0, "nbactif": 256 }, "geometry": { "type": "Point", "coordinates": [ -2.056035003732161, 47.890719502941181 ] } },
{ "type": "Feature", "properties": { "INSEE_COM": "35155", "NOM_COM_M": "LOHEAC", "ouvriers": 14.7, "retraites": 31.4, "prof_inter": 14.7, "sans_activ": 7.8, "employes": 18.6, "artisans": 6.9, "agriculteu": 0.0, "cadres": 5.9, "nbactif": 336 }, "geometry": { "type": "Point", "coordinates": [ -1.888756563580413, 47.872590922494155 ] } },
{ "type": "Feature", "properties": { "INSEE_COM": "35340", "NOM_COM_M": "TREFFENDEL", "ouvriers": 14.7, "retraites": 16.8, "prof_inter": 27.4, "sans_activ": 14.2, "employes": 14.7, "artisans": 4.2, "agriculteu": 3.7, "cadres": 4.2, "nbactif": 668 }, "geometry": { "type": "Point", "coordinates": [ -2.008691634839649, 48.031645650150253 ] } },
{ "type": "Feature", "properties": { "INSEE_COM": "35123", "NOM_COM_M": "GOVEN", "ouvriers": 16.4, "retraites": 20.1, "prof_inter": 17.6, "sans_activ": 16.1, "employes": 18.5, "artisans": 3.8, "agriculteu": 0.6, "cadres": 6.7, "nbactif": 2195 }, "geometry": { "type": "Point", "coordinates": [ -1.839076858220421, 48.00979336775876 ] } },
{ "type": "Feature", "properties": { "INSEE_COM": "35151", "NOM_COM_M": "LIEURON", "ouvriers": 24.6, "retraites": 24.6, "prof_inter": 10.3, "sans_activ": 11.9, "employes": 19.0, "artisans": 1.6, "agriculteu": 6.3, "cadres": 1.6, "nbactif": 393 }, "geometry": { "type": "Point", "coordinates": [ -1.92967470944818, 47.851919913006292 ] } },
{ "type": "Feature", "properties": { "INSEE_COM": "35211", "NOM_COM_M": "PAIMPONT", "ouvriers": 12.0, "retraites": 35.5, "prof_inter": 9.3, "sans_activ": 14.1, "employes": 10.8, "artisans": 8.6, "agriculteu": 3.0, "cadres": 6.7, "nbactif": 716 }, "geometry": { "type": "Point", "coordinates": [ -2.173218394601659, 48.03031364361437 ] } },
{ "type": "Feature", "properties": { "INSEE_COM": "35057", "NOM_COM_M": "CHAPELLE BOUEXIC", "ouvriers": 18.2, "retraites": 20.1, "prof_inter": 16.4, "sans_activ": 12.2, "employes": 19.6, "artisans": 3.7, "agriculteu": 2.8, "cadres": 7.0, "nbactif": 723 }, "geometry": { "type": "Point", "coordinates": [ -1.923026115616263, 47.937087191164537 ] } },
{ "type": "Feature", "properties": { "INSEE_COM": "35169", "NOM_COM_M": "MAXENT", "ouvriers": 17.8, "retraites": 22.9, "prof_inter": 18.7, "sans_activ": 11.0, "employes": 16.4, "artisans": 4.5, "agriculteu": 1.8, "cadres": 7.1, "nbactif": 714 }, "geometry": { "type": "Point", "coordinates": [ -2.016167123458664, 47.978318969691273 ] } },
{ "type": "Feature", "properties": { "INSEE_COM": "35305", "NOM_COM_M": "SAINT PERAN", "ouvriers": 12.2, "retraites": 23.4, "prof_inter": 19.9, "sans_activ": 3.5, "employes": 19.6, "artisans": 5.2, "agriculteu": 1.7, "cadres": 14.3, "nbactif": 206 }, "geometry": { "type": "Point", "coordinates": [ -2.064525460368698, 48.056821106741523 ] } },
{ "type": "Feature", "properties": { "INSEE_COM": "35202", "NOM_COM_M": "NOE BLANCHE", "ouvriers": 21.7, "retraites": 24.8, "prof_inter": 15.9, "sans_activ": 10.2, "employes": 15.9, "artisans": 4.5, "agriculteu": 1.9, "cadres": 5.1, "nbactif": 467 }, "geometry": { "type": "Point", "coordinates": [ -1.745847809390773, 47.795075285766359 ] } },
{ "type": "Feature", "properties": { "INSEE_COM": "35236", "NOM_COM_M": "REDON", "ouvriers": 12.8, "retraites": 33.6, "prof_inter": 11.1, "sans_activ": 19.1, "employes": 13.2, "artisans": 3.8, "agriculteu": 0.0, "cadres": 6.3, "nbactif": 3821 }, "geometry": { "type": "Point", "coordinates": [ -2.08016613608535, 47.661215087814043 ] } },
{ "type": "Feature", "properties": { "INSEE_COM": "35145", "NOM_COM_M": "LANGON", "ouvriers": 16.0, "retraites": 36.1, "prof_inter": 9.6, "sans_activ": 14.3, "employes": 14.7, "artisans": 4.7, "agriculteu": 1.2, "cadres": 3.3, "nbactif": 637 }, "geometry": { "type": "Point", "coordinates": [ -1.871840548257101, 47.733733391219197 ] } },
{ "type": "Feature", "properties": { "INSEE_COM": "35285", "NOM_COM_M": "SAINT JUST", "ouvriers": 13.7, "retraites": 32.1, "prof_inter": 14.9, "sans_activ": 12.5, "employes": 14.9, "artisans": 4.2, "agriculteu": 3.6, "cadres": 4.2, "nbactif": 491 }, "geometry": { "type": "Point", "coordinates": [ -1.969127728444138, 47.764438659923137 ] } },
{ "type": "Feature", "properties": { "INSEE_COM": "35098", "NOM_COM_M": "DOMINELAIS", "ouvriers": 30.4, "retraites": 19.4, "prof_inter": 13.1, "sans_activ": 11.5, "employes": 17.1, "artisans": 1.0, "agriculteu": 4.0, "cadres": 3.5, "nbactif": 686 }, "geometry": { "type": "Point", "coordinates": [ -1.673538586793558, 47.76343453606993 ] } },
{ "type": "Feature", "properties": { "INSEE_COM": "35268", "NOM_COM_M": "SAINT GANTON", "ouvriers": 14.5, "retraites": 46.4, "prof_inter": 8.7, "sans_activ": 8.7, "employes": 11.6, "artisans": 5.8, "agriculteu": 2.9, "cadres": 1.4, "nbactif": 190 }, "geometry": { "type": "Point", "coordinates": [ -1.891041538672493, 47.769824374772277 ] } },
{ "type": "Feature", "properties": { "INSEE_COM": "35064", "NOM_COM_M": "CHAPELLE DE BRAIN", "ouvriers": 19.2, "retraites": 34.2, "prof_inter": 15.8, "sans_activ": 8.3, "employes": 9.2, "artisans": 4.2, "agriculteu": 3.3, "cadres": 5.8, "nbactif": 428 }, "geometry": { "type": "Point", "coordinates": [ -1.934882594365812, 47.697576422870114 ] } },
{ "type": "Feature", "properties": { "INSEE_COM": "35201", "NOM_COM_M": "MUEL", "ouvriers": 25.5, "retraites": 25.5, "prof_inter": 8.0, "sans_activ": 10.2, "employes": 16.8, "artisans": 2.2, "agriculteu": 5.9, "cadres": 5.9, "nbactif": 437 }, "geometry": { "type": "Point", "coordinates": [ -2.162484138073788, 48.120056623295241 ] } },
{ "type": "Feature", "properties": { "INSEE_COM": "35010", "NOM_COM_M": "BAGUER PICAN", "ouvriers": 19.8, "retraites": 26.0, "prof_inter": 14.9, "sans_activ": 9.9, "employes": 21.1, "artisans": 2.9, "agriculteu": 2.1, "cadres": 3.3, "nbactif": 809 }, "geometry": { "type": "Point", "coordinates": [ -1.691118597347488, 48.549892930327879 ] } },
{ "type": "Feature", "properties": { "INSEE_COM": "35240", "NOM_COM_M": "RHEU", "ouvriers": 9.1, "retraites": 20.4, "prof_inter": 20.0, "sans_activ": 15.6, "employes": 15.7, "artisans": 3.0, "agriculteu": 0.2, "cadres": 16.0, "nbactif": 4400 }, "geometry": { "type": "Point", "coordinates": [ -1.781003219151259, 48.097273169802158 ] } },
{ "type": "Feature", "properties": { "INSEE_COM": "35070", "NOM_COM_M": "CHATEAUNEUF D ILLE ET VILAINE", "ouvriers": 19.2, "retraites": 16.4, "prof_inter": 18.8, "sans_activ": 12.5, "employes": 24.3, "artisans": 5.1, "agriculteu": 1.2, "cadres": 2.5, "nbactif": 858 }, "geometry": { "type": "Point", "coordinates": [ -1.928490463961088, 48.558025800701117 ] } },
{ "type": "Feature", "properties": { "INSEE_COM": "35165", "NOM_COM_M": "MARCILLE ROBERT", "ouvriers": 22.8, "retraites": 36.9, "prof_inter": 7.2, "sans_activ": 9.8, "employes": 11.7, "artisans": 4.5, "agriculteu": 4.5, "cadres": 2.6, "nbactif": 424 }, "geometry": { "type": "Point", "coordinates": [ -1.353754667971344, 47.958575467589391 ] } },
{ "type": "Feature", "properties": { "INSEE_COM": "35038", "NOM_COM_M": "BREAL SOUS VITRE", "ouvriers": 36.4, "retraites": 19.5, "prof_inter": 14.1, "sans_activ": 8.0, "employes": 16.1, "artisans": 2.0, "agriculteu": 2.0, "cadres": 2.0, "nbactif": 358 }, "geometry": { "type": "Point", "coordinates": [ -1.06076681442938, 48.092528580826205 ] } },
{ "type": "Feature", "properties": { "INSEE_COM": "35219", "NOM_COM_M": "PIPRIAC", "ouvriers": 22.9, "retraites": 23.9, "prof_inter": 15.4, "sans_activ": 11.2, "employes": 16.4, "artisans": 5.0, "agriculteu": 3.3, "cadres": 1.9, "nbactif": 1754 }, "geometry": { "type": "Point", "coordinates": [ -1.937285914512935, 47.811360837753341 ] } },
{ "type": "Feature", "properties": { "INSEE_COM": "35066", "NOM_COM_M": "CHARTRES DE BRETAGNE", "ouvriers": 11.8, "retraites": 28.4, "prof_inter": 17.0, "sans_activ": 12.8, "employes": 16.8, "artisans": 2.2, "agriculteu": 0.4, "cadres": 10.6, "nbactif": 3624 }, "geometry": { "type": "Point", "coordinates": [ -1.706448846932804, 48.044922613566399 ] } },
{ "type": "Feature", "properties": { "INSEE_COM": "35333", "NOM_COM_M": "THEIL DE BRETAGNE", "ouvriers": 19.2, "retraites": 24.6, "prof_inter": 15.5, "sans_activ": 11.3, "employes": 18.5, "artisans": 2.7, "agriculteu": 3.4, "cadres": 4.9, "nbactif": 877 }, "geometry": { "type": "Point", "coordinates": [ -1.421841984168173, 47.917872805226608 ] } },
{ "type": "Feature", "properties": { "INSEE_COM": "35327", "NOM_COM_M": "SERVON SUR VILAINE", "ouvriers": 13.8, "retraites": 22.6, "prof_inter": 19.4, "sans_activ": 10.5, "employes": 17.2, "artisans": 4.2, "agriculteu": 1.9, "cadres": 10.4, "nbactif": 1900 }, "geometry": { "type": "Point", "coordinates": [ -1.457973067188121, 48.121130421728424 ] } },
{ "type": "Feature", "properties": { "INSEE_COM": "35237", "NOM_COM_M": "RENAC", "ouvriers": 20.3, "retraites": 24.1, "prof_inter": 13.9, "sans_activ": 8.0, "employes": 19.0, "artisans": 3.9, "agriculteu": 6.3, "cadres": 4.5, "nbactif": 479 }, "geometry": { "type": "Point", "coordinates": [ -1.96675519707714, 47.727825651743196 ] } },
{ "type": "Feature", "properties": { "INSEE_COM": "35304", "NOM_COM_M": "SAINT OUEN DES ALLEUX", "ouvriers": 17.2, "retraites": 24.5, "prof_inter": 15.6, "sans_activ": 9.1, "employes": 18.4, "artisans": 4.3, "agriculteu": 2.7, "cadres": 8.1, "nbactif": 656 }, "geometry": { "type": "Point", "coordinates": [ -1.427720765229418, 48.326849875006538 ] } },
{ "type": "Feature", "properties": { "INSEE_COM": "35319", "NOM_COM_M": "SAINT THURIAL", "ouvriers": 20.6, "retraites": 21.2, "prof_inter": 15.2, "sans_activ": 11.9, "employes": 19.4, "artisans": 2.0, "agriculteu": 1.7, "cadres": 8.2, "nbactif": 1125 }, "geometry": { "type": "Point", "coordinates": [ -1.940539506417179, 48.033491355335791 ] } },
{ "type": "Feature", "properties": { "INSEE_COM": "35024", "NOM_COM_M": "BETTON", "ouvriers": 6.9, "retraites": 25.6, "prof_inter": 19.3, "sans_activ": 14.0, "employes": 14.5, "artisans": 2.8, "agriculteu": 0.3, "cadres": 16.5, "nbactif": 5504 }, "geometry": { "type": "Point", "coordinates": [ -1.646456841402385, 48.181254628594225 ] } },
{ "type": "Feature", "properties": { "INSEE_COM": "35302", "NOM_COM_M": "SAINT ONEN LA CHAPELLE", "ouvriers": 26.5, "retraites": 21.5, "prof_inter": 13.3, "sans_activ": 13.3, "employes": 15.5, "artisans": 1.1, "agriculteu": 3.4, "cadres": 5.5, "nbactif": 612 }, "geometry": { "type": "Point", "coordinates": [ -2.155679223756758, 48.169476067720915 ] } },
{ "type": "Feature", "properties": { "INSEE_COM": "35231", "NOM_COM_M": "POLIGNE", "ouvriers": 16.8, "retraites": 19.0, "prof_inter": 16.8, "sans_activ": 13.6, "employes": 19.6, "artisans": 3.8, "agriculteu": 0.5, "cadres": 9.8, "nbactif": 631 }, "geometry": { "type": "Point", "coordinates": [ -1.686079902803968, 47.898985296283229 ] } },
{ "type": "Feature", "properties": { "INSEE_COM": "35210", "NOM_COM_M": "PACE", "ouvriers": 7.8, "retraites": 20.0, "prof_inter": 19.7, "sans_activ": 15.0, "employes": 16.4, "artisans": 3.0, "agriculteu": 0.6, "cadres": 17.3, "nbactif": 5915 }, "geometry": { "type": "Point", "coordinates": [ -1.777326430442638, 48.15267232539081 ] } },
{ "type": "Feature", "properties": { "INSEE_COM": "35045", "NOM_COM_M": "BRUC SUR AFF", "ouvriers": 17.7, "retraites": 32.3, "prof_inter": 13.1, "sans_activ": 14.6, "employes": 11.5, "artisans": 3.8, "agriculteu": 3.8, "cadres": 3.1, "nbactif": 377 }, "geometry": { "type": "Point", "coordinates": [ -2.006170979960321, 47.814273962084364 ] } },
{ "type": "Feature", "properties": { "INSEE_COM": "35042", "NOM_COM_M": "BRIELLES", "ouvriers": 23.9, "retraites": 27.0, "prof_inter": 10.9, "sans_activ": 10.0, "employes": 15.9, "artisans": 5.0, "agriculteu": 1.9, "cadres": 5.0, "nbactif": 352 }, "geometry": { "type": "Point", "coordinates": [ -1.098536459302897, 48.011589940142962 ] } },
{ "type": "Feature", "properties": { "INSEE_COM": "35084", "NOM_COM_M": "COMBLESSAC", "ouvriers": 26.7, "retraites": 31.4, "prof_inter": 10.5, "sans_activ": 9.5, "employes": 12.4, "artisans": 2.9, "agriculteu": 2.9, "cadres": 3.8, "nbactif": 296 }, "geometry": { "type": "Point", "coordinates": [ -2.088401627172586, 47.872359973898959 ] } },
{ "type": "Feature", "properties": { "INSEE_COM": "35022", "NOM_COM_M": "BECHEREL", "ouvriers": 15.4, "retraites": 30.4, "prof_inter": 5.7, "sans_activ": 19.3, "employes": 17.0, "artisans": 6.5, "agriculteu": 0.8, "cadres": 4.7, "nbactif": 332 }, "geometry": { "type": "Point", "coordinates": [ -1.942864044329253, 48.296296864372131 ] } },
{ "type": "Feature", "properties": { "INSEE_COM": "35362", "NOM_COM_M": "TRONCHET", "ouvriers": 14.1, "retraites": 30.1, "prof_inter": 12.6, "sans_activ": 13.1, "employes": 18.0, "artisans": 4.9, "agriculteu": 1.7, "cadres": 5.4, "nbactif": 503 }, "geometry": { "type": "Point", "coordinates": [ -1.84141351221782, 48.492859778959904 ] } },
{ "type": "Feature", "properties": { "INSEE_COM": "35266", "NOM_COM_M": "SAINT ERBLON", "ouvriers": 11.1, "retraites": 25.8, "prof_inter": 19.1, "sans_activ": 12.7, "employes": 17.2, "artisans": 2.4, "agriculteu": 0.6, "cadres": 11.0, "nbactif": 1475 }, "geometry": { "type": "Point", "coordinates": [ -1.642561605481034, 48.018904749733558 ] } },
{ "type": "Feature", "properties": { "INSEE_COM": "35216", "NOM_COM_M": "PARTHENAY DE BRETAGNE", "ouvriers": 13.1, "retraites": 13.1, "prof_inter": 17.0, "sans_activ": 16.2, "employes": 21.3, "artisans": 4.0, "agriculteu": 2.3, "cadres": 13.0, "nbactif": 876 }, "geometry": { "type": "Point", "coordinates": [ -1.82911791090512, 48.188070136103349 ] } },
{ "type": "Feature", "properties": { "INSEE_COM": "35127", "NOM_COM_M": "GUIGNEN", "ouvriers": 17.1, "retraites": 21.1, "prof_inter": 16.9, "sans_activ": 10.4, "employes": 21.3, "artisans": 4.8, "agriculteu": 2.1, "cadres": 6.3, "nbactif": 1986 }, "geometry": { "type": "Point", "coordinates": [ -1.861982648202437, 47.92341645917638 ] } },
{ "type": "Feature", "properties": { "INSEE_COM": "35037", "NOM_COM_M": "BREAL SOUS MONTFORT", "ouvriers": 17.0, "retraites": 20.1, "prof_inter": 20.7, "sans_activ": 10.7, "employes": 17.8, "artisans": 2.8, "agriculteu": 1.0, "cadres": 10.0, "nbactif": 3125 }, "geometry": { "type": "Point", "coordinates": [ -1.865590365990577, 48.044855789117506 ] } },
{ "type": "Feature", "properties": { "INSEE_COM": "35352", "NOM_COM_M": "VERN SUR SEICHE", "ouvriers": 11.7, "retraites": 24.7, "prof_inter": 18.0, "sans_activ": 15.8, "employes": 15.2, "artisans": 2.9, "agriculteu": 0.0, "cadres": 11.7, "nbactif": 3933 }, "geometry": { "type": "Point", "coordinates": [ -1.605158638843593, 48.052829079335488 ] } },
{ "type": "Feature", "properties": { "INSEE_COM": "35229", "NOM_COM_M": "POCE LES BOIS", "ouvriers": 21.8, "retraites": 17.6, "prof_inter": 18.1, "sans_activ": 11.4, "employes": 17.1, "artisans": 3.6, "agriculteu": 3.2, "cadres": 7.3, "nbactif": 684 }, "geometry": { "type": "Point", "coordinates": [ -1.259131754439025, 48.115040834871593 ] } },
{ "type": "Feature", "properties": { "INSEE_COM": "35226", "NOM_COM_M": "PLEUGUENEUC", "ouvriers": 18.1, "retraites": 26.4, "prof_inter": 15.2, "sans_activ": 7.2, "employes": 20.6, "artisans": 5.1, "agriculteu": 1.8, "cadres": 5.8, "nbactif": 904 }, "geometry": { "type": "Point", "coordinates": [ -1.88575147982605, 48.404537232948456 ] } },
{ "type": "Feature", "properties": { "INSEE_COM": "35179", "NOM_COM_M": "MINIAC MORVAN", "ouvriers": 16.6, "retraites": 26.3, "prof_inter": 16.1, "sans_activ": 13.2, "employes": 19.2, "artisans": 3.7, "agriculteu": 0.8, "cadres": 4.2, "nbactif": 1897 }, "geometry": { "type": "Point", "coordinates": [ -1.895122657083788, 48.524724565714052 ] } },
{ "type": "Feature", "properties": { "INSEE_COM": "35068", "NOM_COM_M": "CHATEAUBOURG", "ouvriers": 14.7, "retraites": 20.3, "prof_inter": 20.3, "sans_activ": 11.5, "employes": 18.2, "artisans": 3.3, "agriculteu": 0.5, "cadres": 11.4, "nbactif": 3634 }, "geometry": { "type": "Point", "coordinates": [ -1.404040801446258, 48.11980494252721 ] } },
{ "type": "Feature", "properties": { "INSEE_COM": "35188", "NOM_COM_M": "MONTFORT SUR MEU", "ouvriers": 10.7, "retraites": 30.3, "prof_inter": 17.1, "sans_activ": 14.2, "employes": 15.7, "artisans": 3.4, "agriculteu": 0.0, "cadres": 8.7, "nbactif": 3030 }, "geometry": { "type": "Point", "coordinates": [ -1.963933750058212, 48.126115713669613 ] } },
{ "type": "Feature", "properties": { "INSEE_COM": "35117", "NOM_COM_M": "GAEL", "ouvriers": 27.9, "retraites": 26.1, "prof_inter": 11.5, "sans_activ": 12.6, "employes": 11.5, "artisans": 1.5, "agriculteu": 6.9, "cadres": 2.0, "nbactif": 797 }, "geometry": { "type": "Point", "coordinates": [ -2.228615116821681, 48.118483454887773 ] } },
{ "type": "Feature", "properties": { "INSEE_COM": "35334", "NOM_COM_M": "THORIGNE FOUILLARD", "ouvriers": 5.8, "retraites": 21.7, "prof_inter": 19.1, "sans_activ": 16.3, "employes": 14.5, "artisans": 2.8, "agriculteu": 0.3, "cadres": 19.5, "nbactif": 4133 }, "geometry": { "type": "Point", "coordinates": [ -1.584437566313716, 48.156613315018049 ] } },
{ "type": "Feature", "properties": { "INSEE_COM": "35013", "NOM_COM_M": "BAINS SUR OUST", "ouvriers": 16.6, "retraites": 30.7, "prof_inter": 15.6, "sans_activ": 10.7, "employes": 13.6, "artisans": 8.0, "agriculteu": 0.5, "cadres": 4.1, "nbactif": 1605 }, "geometry": { "type": "Point", "coordinates": [ -2.075628379675736, 47.712198049315582 ] } },
{ "type": "Feature", "properties": { "INSEE_COM": "35096", "NOM_COM_M": "DOMAGNE", "ouvriers": 21.9, "retraites": 23.0, "prof_inter": 15.5, "sans_activ": 11.5, "employes": 16.0, "artisans": 2.5, "agriculteu": 3.6, "cadres": 6.1, "nbactif": 1192 }, "geometry": { "type": "Point", "coordinates": [ -1.406217969598854, 48.067436885484689 ] } },
{ "type": "Feature", "properties": { "INSEE_COM": "35081", "NOM_COM_M": "CLAYES", "ouvriers": 10.7, "retraites": 20.6, "prof_inter": 22.4, "sans_activ": 12.4, "employes": 15.7, "artisans": 3.3, "agriculteu": 0.8, "cadres": 14.0, "nbactif": 417 }, "geometry": { "type": "Point", "coordinates": [ -1.85375598262399, 48.179059230328278 ] } },
{ "type": "Feature", "properties": { "INSEE_COM": "35121", "NOM_COM_M": "GOSNE", "ouvriers": 13.4, "retraites": 21.1, "prof_inter": 19.5, "sans_activ": 12.8, "employes": 16.5, "artisans": 4.0, "agriculteu": 3.0, "cadres": 9.8, "nbactif": 1032 }, "geometry": { "type": "Point", "coordinates": [ -1.458660170864827, 48.250379947924273 ] } },
{ "type": "Feature", "properties": { "INSEE_COM": "35143", "NOM_COM_M": "LANDUJAN", "ouvriers": 15.7, "retraites": 24.9, "prof_inter": 16.6, "sans_activ": 8.3, "employes": 21.0, "artisans": 5.3, "agriculteu": 1.6, "cadres": 6.7, "nbactif": 504 }, "geometry": { "type": "Point", "coordinates": [ -2.008433638004082, 48.247668753144517 ] } },
{ "type": "Feature", "properties": { "INSEE_COM": "35016", "NOM_COM_M": "BAULON", "ouvriers": 18.2, "retraites": 20.5, "prof_inter": 18.2, "sans_activ": 14.0, "employes": 17.0, "artisans": 5.0, "agriculteu": 0.3, "cadres": 6.8, "nbactif": 1075 }, "geometry": { "type": "Point", "coordinates": [ -1.929403131447588, 47.99495832325055 ] } },
{ "type": "Feature", "properties": { "INSEE_COM": "35274", "NOM_COM_M": "SAINT GERMAIN SUR ILLE", "ouvriers": 13.5, "retraites": 17.6, "prof_inter": 22.3, "sans_activ": 13.5, "employes": 10.8, "artisans": 2.0, "agriculteu": 2.0, "cadres": 18.2, "nbactif": 488 }, "geometry": { "type": "Point", "coordinates": [ -1.652029409471615, 48.250459814192261 ] } },
{ "type": "Feature", "properties": { "INSEE_COM": "35288", "NOM_COM_M": "SAINT MALO", "ouvriers": 9.5, "retraites": 38.9, "prof_inter": 11.1, "sans_activ": 14.9, "employes": 14.7, "artisans": 3.6, "agriculteu": 0.1, "cadres": 7.2, "nbactif": 18514 }, "geometry": { "type": "Point", "coordinates": [ -1.980866626192457, 48.640043799559571 ] } },
{ "type": "Feature", "properties": { "INSEE_COM": "35002", "NOM_COM_M": "AMANLIS", "ouvriers": 12.5, "retraites": 21.6, "prof_inter": 18.6, "sans_activ": 10.6, "employes": 17.8, "artisans": 4.1, "agriculteu": 3.4, "cadres": 11.4, "nbactif": 862 }, "geometry": { "type": "Point", "coordinates": [ -1.496120735921193, 47.999804722583178 ] } },
{ "type": "Feature", "properties": { "INSEE_COM": "35063", "NOM_COM_M": "CHAPELLE SAINT AUBERT", "ouvriers": 14.4, "retraites": 32.0, "prof_inter": 8.7, "sans_activ": 10.2, "employes": 21.9, "artisans": 1.5, "agriculteu": 5.7, "cadres": 5.7, "nbactif": 212 }, "geometry": { "type": "Point", "coordinates": [ -1.314677041750949, 48.309918878555948 ] } },
{ "type": "Feature", "properties": { "INSEE_COM": "35173", "NOM_COM_M": "MELESSE", "ouvriers": 10.0, "retraites": 26.9, "prof_inter": 18.6, "sans_activ": 13.2, "employes": 13.3, "artisans": 3.2, "agriculteu": 1.9, "cadres": 12.8, "nbactif": 3109 }, "geometry": { "type": "Point", "coordinates": [ -1.689586106487056, 48.219359066250533 ] } },
{ "type": "Feature", "properties": { "INSEE_COM": "35030", "NOM_COM_M": "BOSSE DE BRETAGNE", "ouvriers": 16.1, "retraites": 27.0, "prof_inter": 12.9, "sans_activ": 9.7, "employes": 21.5, "artisans": 4.3, "agriculteu": 1.1, "cadres": 7.5, "nbactif": 324 }, "geometry": { "type": "Point", "coordinates": [ -1.588804588749127, 47.868167032477984 ] } },
{ "type": "Feature", "properties": { "INSEE_COM": "35061", "NOM_COM_M": "CHAPELLE ERBREE", "ouvriers": 32.8, "retraites": 20.5, "prof_inter": 10.4, "sans_activ": 13.9, "employes": 12.2, "artisans": 2.8, "agriculteu": 4.7, "cadres": 2.8, "nbactif": 337 }, "geometry": { "type": "Point", "coordinates": [ -1.089659309500638, 48.140359517845383 ] } },
{ "type": "Feature", "properties": { "INSEE_COM": "35251", "NOM_COM_M": "SAINT AUBIN D AUBIGNE", "ouvriers": 13.5, "retraites": 26.3, "prof_inter": 15.8, "sans_activ": 12.4, "employes": 20.4, "artisans": 2.8, "agriculteu": 0.8, "cadres": 8.0, "nbactif": 1825 }, "geometry": { "type": "Point", "coordinates": [ -1.600353037709188, 48.261935096004059 ] } },
{ "type": "Feature", "properties": { "INSEE_COM": "35212", "NOM_COM_M": "PANCE", "ouvriers": 20.1, "retraites": 22.3, "prof_inter": 13.6, "sans_activ": 10.3, "employes": 17.4, "artisans": 4.4, "agriculteu": 1.1, "cadres": 10.8, "nbactif": 583 }, "geometry": { "type": "Point", "coordinates": [ -1.642832545187448, 47.888669533908114 ] } },
{ "type": "Feature", "properties": { "INSEE_COM": "35325", "NOM_COM_M": "SELLE GUERCHAISE", "ouvriers": 29.0, "retraites": 12.9, "prof_inter": 8.1, "sans_activ": 8.1, "employes": 21.0, "artisans": 4.0, "agriculteu": 8.1, "cadres": 8.1, "nbactif": 80 }, "geometry": { "type": "Point", "coordinates": [ -1.170409923916004, 47.942823891626631 ] } },
{ "type": "Feature", "properties": { "INSEE_COM": "35174", "NOM_COM_M": "MELLE", "ouvriers": 24.8, "retraites": 28.8, "prof_inter": 11.8, "sans_activ": 13.6, "employes": 14.8, "artisans": 3.0, "agriculteu": 2.0, "cadres": 1.0, "nbactif": 292 }, "geometry": { "type": "Point", "coordinates": [ -1.191080529718572, 48.484390151722955 ] } },
{ "type": "Feature", "properties": { "INSEE_COM": "35054", "NOM_COM_M": "CHANTELOUP", "ouvriers": 19.7, "retraites": 15.2, "prof_inter": 20.5, "sans_activ": 9.9, "employes": 19.4, "artisans": 4.2, "agriculteu": 0.7, "cadres": 10.2, "nbactif": 970 }, "geometry": { "type": "Point", "coordinates": [ -1.62480520541692, 47.954057772003821 ] } },
{ "type": "Feature", "properties": { "INSEE_COM": "35126", "NOM_COM_M": "GUICHEN", "ouvriers": 12.0, "retraites": 24.5, "prof_inter": 18.7, "sans_activ": 12.8, "employes": 17.8, "artisans": 4.0, "agriculteu": 0.5, "cadres": 9.7, "nbactif": 4234 }, "geometry": { "type": "Point", "coordinates": [ -1.790194149508533, 47.965339799611336 ] } },
{ "type": "Feature", "properties": { "INSEE_COM": "35078", "NOM_COM_M": "CHERRUEIX", "ouvriers": 8.7, "retraites": 45.3, "prof_inter": 8.2, "sans_activ": 11.9, "employes": 13.9, "artisans": 5.7, "agriculteu": 5.2, "cadres": 1.0, "nbactif": 411 }, "geometry": { "type": "Point", "coordinates": [ -1.715508659375533, 48.59485640487727 ] } },
{ "type": "Feature", "properties": { "INSEE_COM": "35187", "NOM_COM_M": "MONTERFIL", "ouvriers": 14.5, "retraites": 24.1, "prof_inter": 17.7, "sans_activ": 10.6, "employes": 18.2, "artisans": 2.7, "agriculteu": 1.1, "cadres": 11.3, "nbactif": 614 }, "geometry": { "type": "Point", "coordinates": [ -1.990378632004708, 48.060059951333606 ] } },
{ "type": "Feature", "properties": { "INSEE_COM": "35294", "NOM_COM_M": "SAINTE MARIE", "ouvriers": 20.1, "retraites": 30.5, "prof_inter": 10.9, "sans_activ": 12.3, "employes": 17.6, "artisans": 2.9, "agriculteu": 0.9, "cadres": 4.7, "nbactif": 990 }, "geometry": { "type": "Point", "coordinates": [ -2.013591357807741, 47.693517803352144 ] } },
{ "type": "Feature", "properties": { "INSEE_COM": "35015", "NOM_COM_M": "BALAZE", "ouvriers": 22.4, "retraites": 22.7, "prof_inter": 13.8, "sans_activ": 9.4, "employes": 18.5, "artisans": 2.6, "agriculteu": 5.9, "cadres": 4.7, "nbactif": 1159 }, "geometry": { "type": "Point", "coordinates": [ -1.183237449732051, 48.17790240227977 ] } },
{ "type": "Feature", "properties": { "INSEE_COM": "35357", "NOM_COM_M": "VILLAMEE", "ouvriers": 15.3, "retraites": 21.8, "prof_inter": 17.2, "sans_activ": 17.2, "employes": 13.4, "artisans": 3.8, "agriculteu": 5.7, "cadres": 5.7, "nbactif": 146 }, "geometry": { "type": "Point", "coordinates": [ -1.219278048769411, 48.455676335730487 ] } },
{ "type": "Feature", "properties": { "INSEE_COM": "35108", "NOM_COM_M": "ESSE", "ouvriers": 18.8, "retraites": 16.1, "prof_inter": 12.1, "sans_activ": 13.2, "employes": 20.6, "artisans": 1.8, "agriculteu": 10.8, "cadres": 6.7, "nbactif": 588 }, "geometry": { "type": "Point", "coordinates": [ -1.430518203047296, 47.94794612771252 ] } },
{ "type": "Feature", "properties": { "INSEE_COM": "35306", "NOM_COM_M": "SAINT PERE MARC EN POULET", "ouvriers": 10.6, "retraites": 30.1, "prof_inter": 19.5, "sans_activ": 13.2, "employes": 15.3, "artisans": 4.5, "agriculteu": 0.5, "cadres": 6.3, "nbactif": 1146 }, "geometry": { "type": "Point", "coordinates": [ -1.929247320271744, 48.584125317023876 ] } },
{ "type": "Feature", "properties": { "INSEE_COM": "35132", "NOM_COM_M": "HIREL", "ouvriers": 17.2, "retraites": 31.3, "prof_inter": 13.2, "sans_activ": 13.7, "employes": 14.6, "artisans": 2.7, "agriculteu": 3.1, "cadres": 4.4, "nbactif": 603 }, "geometry": { "type": "Point", "coordinates": [ -1.809181468548115, 48.593618539820142 ] } },
{ "type": "Feature", "properties": { "INSEE_COM": "35160", "NOM_COM_M": "LOUTEHEL", "ouvriers": 15.1, "retraites": 27.3, "prof_inter": 15.1, "sans_activ": 12.7, "employes": 20.0, "artisans": 0.0, "agriculteu": 0.0, "cadres": 10.2, "nbactif": 129 }, "geometry": { "type": "Point", "coordinates": [ -2.079635943478621, 47.93701320065059 ] } },
{ "type": "Feature", "properties": { "INSEE_COM": "35176", "NOM_COM_M": "GUIPRY MESSAC", "ouvriers": 16.9, "retraites": 28.8, "prof_inter": 13.0, "sans_activ": 11.7, "employes": 17.3, "artisans": 4.2, "agriculteu": 2.0, "cadres": 5.9, "nbactif": 3264 }, "geometry": { "type": "Point", "coordinates": [ -1.830461956676723, 47.821553863370077 ] } },
{ "type": "Feature", "properties": { "INSEE_COM": "35284", "NOM_COM_M": "SAINT JOUAN DES GUERETS", "ouvriers": 11.4, "retraites": 36.6, "prof_inter": 10.8, "sans_activ": 11.2, "employes": 17.5, "artisans": 6.6, "agriculteu": 0.7, "cadres": 5.3, "nbactif": 1204 }, "geometry": { "type": "Point", "coordinates": [ -1.965292178122279, 48.60398329241653 ] } },
{ "type": "Feature", "properties": { "INSEE_COM": "35189", "NOM_COM_M": "MONTGERMONT", "ouvriers": 8.8, "retraites": 25.9, "prof_inter": 15.9, "sans_activ": 16.5, "employes": 17.6, "artisans": 2.4, "agriculteu": 0.0, "cadres": 13.0, "nbactif": 1573 }, "geometry": { "type": "Point", "coordinates": [ -1.717023567331066, 48.154004174252137 ] } },
{ "type": "Feature", "properties": { "INSEE_COM": "35355", "NOM_COM_M": "VIEUX VY SUR COUESNON", "ouvriers": 16.4, "retraites": 22.5, "prof_inter": 15.3, "sans_activ": 14.3, "employes": 20.4, "artisans": 2.8, "agriculteu": 0.6, "cadres": 7.7, "nbactif": 587 }, "geometry": { "type": "Point", "coordinates": [ -1.499158099921817, 48.334544139859133 ] } },
{ "type": "Feature", "properties": { "INSEE_COM": "35328", "NOM_COM_M": "SIXT SUR AFF", "ouvriers": 21.7, "retraites": 31.3, "prof_inter": 8.7, "sans_activ": 15.6, "employes": 14.3, "artisans": 2.9, "agriculteu": 1.8, "cadres": 3.7, "nbactif": 950 }, "geometry": { "type": "Point", "coordinates": [ -2.049601690264196, 47.774878078989772 ] } },
{ "type": "Feature", "properties": { "INSEE_COM": "35297", "NOM_COM_M": "SAINT MEEN LE GRAND", "ouvriers": 21.6, "retraites": 37.3, "prof_inter": 9.5, "sans_activ": 12.2, "employes": 13.4, "artisans": 2.4, "agriculteu": 0.8, "cadres": 2.8, "nbactif": 1886 }, "geometry": { "type": "Point", "coordinates": [ -2.194996572288032, 48.192349145751997 ] } },
{ "type": "Feature", "properties": { "INSEE_COM": "35242", "NOM_COM_M": "RIMOU", "ouvriers": 17.3, "retraites": 38.5, "prof_inter": 12.2, "sans_activ": 5.4, "employes": 5.0, "artisans": 3.6, "agriculteu": 12.6, "cadres": 5.4, "nbactif": 149 }, "geometry": { "type": "Point", "coordinates": [ -1.528373466175789, 48.38773780339168 ] } },
{ "type": "Feature", "properties": { "INSEE_COM": "35178", "NOM_COM_M": "MEZIERES SUR COUESNON", "ouvriers": 14.0, "retraites": 17.4, "prof_inter": 23.7, "sans_activ": 9.3, "employes": 16.1, "artisans": 3.0, "agriculteu": 1.7, "cadres": 14.8, "nbactif": 867 }, "geometry": { "type": "Point", "coordinates": [ -1.438549854270551, 48.296882852736076 ] } },
{ "type": "Feature", "properties": { "INSEE_COM": "35062", "NOM_COM_M": "CHAPELLE JANSON", "ouvriers": 21.7, "retraites": 31.9, "prof_inter": 13.2, "sans_activ": 7.3, "employes": 16.2, "artisans": 4.7, "agriculteu": 3.4, "cadres": 1.7, "nbactif": 653 }, "geometry": { "type": "Point", "coordinates": [ -1.085408942432507, 48.335542845301283 ] } },
{ "type": "Feature", "properties": { "INSEE_COM": "35195", "NOM_COM_M": "MONTREUIL SUR ILLE", "ouvriers": 13.2, "retraites": 24.8, "prof_inter": 14.9, "sans_activ": 9.8, "employes": 20.8, "artisans": 4.2, "agriculteu": 1.7, "cadres": 10.4, "nbactif": 1157 }, "geometry": { "type": "Point", "coordinates": [ -1.668810122811732, 48.305603682269421 ] } },
{ "type": "Feature", "properties": { "INSEE_COM": "35112", "NOM_COM_M": "FLEURIGNE", "ouvriers": 19.6, "retraites": 26.8, "prof_inter": 17.0, "sans_activ": 3.9, "employes": 17.0, "artisans": 6.5, "agriculteu": 6.5, "cadres": 2.6, "nbactif": 506 }, "geometry": { "type": "Point", "coordinates": [ -1.111793928200075, 48.361730946077145 ] } },
{ "type": "Feature", "properties": { "INSEE_COM": "35259", "NOM_COM_M": "SAINT BROLADRE", "ouvriers": 17.5, "retraites": 41.1, "prof_inter": 6.2, "sans_activ": 12.4, "employes": 12.0, "artisans": 5.6, "agriculteu": 3.4, "cadres": 1.7, "nbactif": 426 }, "geometry": { "type": "Point", "coordinates": [ -1.66116118849221, 48.580117019636837 ] } },
{ "type": "Feature", "properties": { "INSEE_COM": "35205", "NOM_COM_M": "NOYAL SOUS BAZOUGES", "ouvriers": 19.1, "retraites": 36.6, "prof_inter": 11.2, "sans_activ": 7.8, "employes": 19.1, "artisans": 1.6, "agriculteu": 4.7, "cadres": 0.0, "nbactif": 199 }, "geometry": { "type": "Point", "coordinates": [ -1.624034732730359, 48.417518688848155 ] } },
{ "type": "Feature", "properties": { "INSEE_COM": "35071", "NOM_COM_M": "CHATELLIER", "ouvriers": 20.9, "retraites": 28.4, "prof_inter": 16.4, "sans_activ": 6.0, "employes": 11.9, "artisans": 0.0, "agriculteu": 10.4, "cadres": 6.0, "nbactif": 215 }, "geometry": { "type": "Point", "coordinates": [ -1.245709878480549, 48.42589663919545 ] } },
{ "type": "Feature", "properties": { "INSEE_COM": "35044", "NOM_COM_M": "BROUALAN", "ouvriers": 21.1, "retraites": 24.6, "prof_inter": 12.3, "sans_activ": 17.5, "employes": 14.0, "artisans": 5.3, "agriculteu": 0.0, "cadres": 5.3, "nbactif": 187 }, "geometry": { "type": "Point", "coordinates": [ -1.66115889812037, 48.475285857254875 ] } },
{ "type": "Feature", "properties": { "INSEE_COM": "35067", "NOM_COM_M": "CHASNE SUR ILLET", "ouvriers": 12.8, "retraites": 13.5, "prof_inter": 22.3, "sans_activ": 14.0, "employes": 15.8, "artisans": 3.0, "agriculteu": 0.0, "cadres": 18.5, "nbactif": 797 }, "geometry": { "type": "Point", "coordinates": [ -1.571416099322855, 48.235390335527832 ] } },
{ "type": "Feature", "properties": { "INSEE_COM": "35253", "NOM_COM_M": "SAINT AUBIN DU CORMIER", "ouvriers": 13.4, "retraites": 21.9, "prof_inter": 12.6, "sans_activ": 13.0, "employes": 28.4, "artisans": 3.3, "agriculteu": 0.3, "cadres": 7.1, "nbactif": 1992 }, "geometry": { "type": "Point", "coordinates": [ -1.420935837630904, 48.25835019990955 ] } },
{ "type": "Feature", "properties": { "INSEE_COM": "35197", "NOM_COM_M": "MOUAZE", "ouvriers": 8.6, "retraites": 19.4, "prof_inter": 25.9, "sans_activ": 11.7, "employes": 16.8, "artisans": 3.9, "agriculteu": 0.8, "cadres": 12.9, "nbactif": 792 }, "geometry": { "type": "Point", "coordinates": [ -1.60756748768519, 48.218231669525132 ] } },
{ "type": "Feature", "properties": { "INSEE_COM": "35296", "NOM_COM_M": "SAINT MEDARD SUR ILLE", "ouvriers": 13.3, "retraites": 19.4, "prof_inter": 15.8, "sans_activ": 12.3, "employes": 19.4, "artisans": 7.1, "agriculteu": 2.5, "cadres": 10.3, "nbactif": 700 }, "geometry": { "type": "Point", "coordinates": [ -1.670929491715967, 48.272996325024678 ] } },
{ "type": "Feature", "properties": { "INSEE_COM": "35007", "NOM_COM_M": "AUBIGNE", "ouvriers": 15.0, "retraites": 15.0, "prof_inter": 20.9, "sans_activ": 11.8, "employes": 26.8, "artisans": 1.5, "agriculteu": 1.5, "cadres": 7.4, "nbactif": 243 }, "geometry": { "type": "Point", "coordinates": [ -1.630950955973308, 48.298829979366637 ] } },
{ "type": "Feature", "properties": { "INSEE_COM": "35025", "NOM_COM_M": "BILLE", "ouvriers": 21.5, "retraites": 31.2, "prof_inter": 12.6, "sans_activ": 13.1, "employes": 12.0, "artisans": 1.2, "agriculteu": 4.2, "cadres": 4.2, "nbactif": 496 }, "geometry": { "type": "Point", "coordinates": [ -1.251121248082428, 48.293859052685214 ] } },
{ "type": "Feature", "properties": { "INSEE_COM": "35154", "NOM_COM_M": "LIVRE SUR CHANGEON", "ouvriers": 18.3, "retraites": 28.8, "prof_inter": 16.2, "sans_activ": 7.7, "employes": 17.5, "artisans": 2.6, "agriculteu": 2.1, "cadres": 6.8, "nbactif": 801 }, "geometry": { "type": "Point", "coordinates": [ -1.348483918947392, 48.227216351553324 ] } },
{ "type": "Feature", "properties": { "INSEE_COM": "35118", "NOM_COM_M": "GAHARD", "ouvriers": 16.2, "retraites": 20.8, "prof_inter": 18.5, "sans_activ": 13.0, "employes": 15.3, "artisans": 3.7, "agriculteu": 1.9, "cadres": 10.6, "nbactif": 731 }, "geometry": { "type": "Point", "coordinates": [ -1.527205158739342, 48.288216858356677 ] } },
{ "type": "Feature", "properties": { "INSEE_COM": "35086", "NOM_COM_M": "COMBOURTILLE", "ouvriers": 17.7, "retraites": 27.7, "prof_inter": 11.1, "sans_activ": 8.9, "employes": 23.3, "artisans": 2.2, "agriculteu": 1.1, "cadres": 7.8, "nbactif": 283 }, "geometry": { "type": "Point", "coordinates": [ -1.264459702540396, 48.266246016146773 ] } },
{ "type": "Feature", "properties": { "INSEE_COM": "35315", "NOM_COM_M": "SAINT SULPICE LA FORET", "ouvriers": 13.8, "retraites": 16.3, "prof_inter": 24.0, "sans_activ": 8.7, "employes": 13.8, "artisans": 1.5, "agriculteu": 0.5, "cadres": 21.4, "nbactif": 679 }, "geometry": { "type": "Point", "coordinates": [ -1.575874703608525, 48.212406969615508 ] } },
{ "type": "Feature", "properties": { "INSEE_COM": "35107", "NOM_COM_M": "ERCE PRES LIFFRE", "ouvriers": 18.3, "retraites": 15.6, "prof_inter": 20.9, "sans_activ": 9.3, "employes": 18.3, "artisans": 4.8, "agriculteu": 2.9, "cadres": 9.7, "nbactif": 944 }, "geometry": { "type": "Point", "coordinates": [ -1.517031587961452, 48.254540012915939 ] } },
{ "type": "Feature", "properties": { "INSEE_COM": "35003", "NOM_COM_M": "ANDOUILLE NEUVILLE", "ouvriers": 24.1, "retraites": 12.1, "prof_inter": 17.2, "sans_activ": 7.8, "employes": 23.3, "artisans": 4.4, "agriculteu": 4.4, "cadres": 6.9, "nbactif": 465 }, "geometry": { "type": "Point", "coordinates": [ -1.595815678564983, 48.297658638580415 ] } },
{ "type": "Feature", "properties": { "INSEE_COM": "35260", "NOM_COM_M": "SAINT CHRISTOPHE DES BOIS", "ouvriers": 32.9, "retraites": 25.9, "prof_inter": 5.9, "sans_activ": 12.8, "employes": 11.7, "artisans": 5.9, "agriculteu": 2.3, "cadres": 2.3, "nbactif": 261 }, "geometry": { "type": "Point", "coordinates": [ -1.236373694717507, 48.226697403373691 ] } },
{ "type": "Feature", "properties": { "INSEE_COM": "35034", "NOM_COM_M": "BOUSSAC", "ouvriers": 19.8, "retraites": 23.5, "prof_inter": 12.8, "sans_activ": 11.8, "employes": 20.9, "artisans": 4.9, "agriculteu": 2.1, "cadres": 4.3, "nbactif": 532 }, "geometry": { "type": "Point", "coordinates": [ -1.648944869038997, 48.516851860146438 ] } },
{ "type": "Feature", "properties": { "INSEE_COM": "35079", "NOM_COM_M": "CHEVAIGNE", "ouvriers": 8.4, "retraites": 19.7, "prof_inter": 21.3, "sans_activ": 14.6, "employes": 16.8, "artisans": 4.2, "agriculteu": 1.2, "cadres": 13.8, "nbactif": 1129 }, "geometry": { "type": "Point", "coordinates": [ -1.636307921122236, 48.224442699340294 ] } },
{ "type": "Feature", "properties": { "INSEE_COM": "35258", "NOM_COM_M": "SAINT BRIEUC DES IFFS", "ouvriers": 13.2, "retraites": 24.5, "prof_inter": 14.0, "sans_activ": 7.8, "employes": 19.1, "artisans": 3.9, "agriculteu": 3.9, "cadres": 14.0, "nbactif": 162 }, "geometry": { "type": "Point", "coordinates": [ -1.843299422314914, 48.303793838754792 ] } },
{ "type": "Feature", "properties": { "INSEE_COM": "35177", "NOM_COM_M": "MEZIERE", "ouvriers": 11.6, "retraites": 14.3, "prof_inter": 21.2, "sans_activ": 14.1, "employes": 19.9, "artisans": 5.0, "agriculteu": 0.3, "cadres": 13.6, "nbactif": 2691 }, "geometry": { "type": "Point", "coordinates": [ -1.750678738941434, 48.212648691213239 ] } },
{ "type": "Feature", "properties": { "INSEE_COM": "35245", "NOM_COM_M": "ROMILLE", "ouvriers": 12.6, "retraites": 24.8, "prof_inter": 18.5, "sans_activ": 10.4, "employes": 17.1, "artisans": 4.7, "agriculteu": 1.5, "cadres": 10.4, "nbactif": 1915 }, "geometry": { "type": "Point", "coordinates": [ -1.87871595578918, 48.222418791058352 ] } },
{ "type": "Feature", "properties": { "INSEE_COM": "35134", "NOM_COM_M": "IFFS", "ouvriers": 14.0, "retraites": 23.4, "prof_inter": 14.0, "sans_activ": 9.3, "employes": 23.4, "artisans": 4.7, "agriculteu": 2.3, "cadres": 9.3, "nbactif": 134 }, "geometry": { "type": "Point", "coordinates": [ -1.866344303312829, 48.294148034214025 ] } },
{ "type": "Feature", "properties": { "INSEE_COM": "35056", "NOM_COM_M": "CHAPELLE AUX FILTZMEENS", "ouvriers": 21.5, "retraites": 15.7, "prof_inter": 15.7, "sans_activ": 10.7, "employes": 30.6, "artisans": 2.5, "agriculteu": 0.0, "cadres": 3.3, "nbactif": 429 }, "geometry": { "type": "Point", "coordinates": [ -1.818063871905015, 48.381675423499452 ] } },
{ "type": "Feature", "properties": { "INSEE_COM": "35094", "NOM_COM_M": "DINGE", "ouvriers": 20.1, "retraites": 26.1, "prof_inter": 15.0, "sans_activ": 10.3, "employes": 15.0, "artisans": 3.9, "agriculteu": 2.7, "cadres": 6.7, "nbactif": 810 }, "geometry": { "type": "Point", "coordinates": [ -1.710264075125731, 48.346980143362543 ] } },
{ "type": "Feature", "properties": { "INSEE_COM": "35337", "NOM_COM_M": "TINTENIAC", "ouvriers": 13.8, "retraites": 30.8, "prof_inter": 16.4, "sans_activ": 13.1, "employes": 14.0, "artisans": 2.8, "agriculteu": 2.0, "cadres": 7.1, "nbactif": 1647 }, "geometry": { "type": "Point", "coordinates": [ -1.829939809261044, 48.323511681843328 ] } },
{ "type": "Feature", "properties": { "INSEE_COM": "35193", "NOM_COM_M": "MONTREUIL LE GAST", "ouvriers": 9.8, "retraites": 20.9, "prof_inter": 23.5, "sans_activ": 12.5, "employes": 18.2, "artisans": 2.0, "agriculteu": 0.0, "cadres": 13.2, "nbactif": 972 }, "geometry": { "type": "Point", "coordinates": [ -1.720398430500051, 48.243953880415916 ] } },
{ "type": "Feature", "properties": { "INSEE_COM": "35180", "NOM_COM_M": "MINIAC SOUS BECHEREL", "ouvriers": 13.9, "retraites": 26.0, "prof_inter": 18.2, "sans_activ": 9.6, "employes": 14.8, "artisans": 6.1, "agriculteu": 6.1, "cadres": 5.2, "nbactif": 364 }, "geometry": { "type": "Point", "coordinates": [ -1.926870539508446, 48.281018163707465 ] } },
{ "type": "Feature", "properties": { "INSEE_COM": "35091", "NOM_COM_M": "CROUAIS", "ouvriers": 22.5, "retraites": 22.5, "prof_inter": 20.2, "sans_activ": 12.4, "employes": 18.0, "artisans": 1.1, "agriculteu": 1.1, "cadres": 2.2, "nbactif": 298 }, "geometry": { "type": "Point", "coordinates": [ -2.150993944836998, 48.209372095759718 ] } },
{ "type": "Feature", "properties": { "INSEE_COM": "35307", "NOM_COM_M": "SAINT PERN", "ouvriers": 18.6, "retraites": 19.6, "prof_inter": 19.4, "sans_activ": 12.8, "employes": 18.0, "artisans": 3.0, "agriculteu": 4.9, "cadres": 3.7, "nbactif": 449 }, "geometry": { "type": "Point", "coordinates": [ -1.983124142537515, 48.281246461340743 ] } },
{ "type": "Feature", "properties": { "INSEE_COM": "35317", "NOM_COM_M": "SAINT SYMPHORIEN", "ouvriers": 13.1, "retraites": 21.7, "prof_inter": 12.0, "sans_activ": 15.4, "employes": 16.2, "artisans": 2.1, "agriculteu": 6.5, "cadres": 13.1, "nbactif": 345 }, "geometry": { "type": "Point", "coordinates": [ -1.803146654657467, 48.280269400625791 ] } },
{ "type": "Feature", "properties": { "INSEE_COM": "35265", "NOM_COM_M": "SAINT DOMINEUC", "ouvriers": 17.8, "retraites": 25.0, "prof_inter": 16.3, "sans_activ": 10.7, "employes": 17.0, "artisans": 4.3, "agriculteu": 1.5, "cadres": 7.4, "nbactif": 1187 }, "geometry": { "type": "Point", "coordinates": [ -1.869390374427624, 48.360563483713868 ] } },
{ "type": "Feature", "properties": { "INSEE_COM": "35276", "NOM_COM_M": "SAINT GONDRAN", "ouvriers": 17.5, "retraites": 18.8, "prof_inter": 18.8, "sans_activ": 8.8, "employes": 15.0, "artisans": 2.5, "agriculteu": 0.0, "cadres": 18.8, "nbactif": 270 }, "geometry": { "type": "Point", "coordinates": [ -1.82537040362673, 48.268128262829237 ] } },
{ "type": "Feature", "properties": { "INSEE_COM": "35120", "NOM_COM_M": "GEVEZE", "ouvriers": 12.9, "retraites": 17.2, "prof_inter": 22.7, "sans_activ": 9.9, "employes": 19.3, "artisans": 3.2, "agriculteu": 1.4, "cadres": 13.3, "nbactif": 2793 }, "geometry": { "type": "Point", "coordinates": [ -1.799005434558729, 48.213314691120175 ] } },
{ "type": "Feature", "properties": { "INSEE_COM": "35017", "NOM_COM_M": "BAUSSAINE", "ouvriers": 17.9, "retraites": 16.0, "prof_inter": 22.7, "sans_activ": 12.2, "employes": 15.1, "artisans": 1.9, "agriculteu": 5.7, "cadres": 8.6, "nbactif": 349 }, "geometry": { "type": "Point", "coordinates": [ -1.896614045825625, 48.31294715424761 ] } },
{ "type": "Feature", "properties": { "INSEE_COM": "35135", "NOM_COM_M": "IRODOUER", "ouvriers": 18.2, "retraites": 23.5, "prof_inter": 16.9, "sans_activ": 12.0, "employes": 18.5, "artisans": 2.1, "agriculteu": 1.5, "cadres": 7.1, "nbactif": 1088 }, "geometry": { "type": "Point", "coordinates": [ -1.950394527332587, 48.246245158407241 ] } },
{ "type": "Feature", "properties": { "INSEE_COM": "35156", "NOM_COM_M": "LONGAULNAY", "ouvriers": 14.3, "retraites": 24.2, "prof_inter": 14.3, "sans_activ": 12.1, "employes": 21.0, "artisans": 2.2, "agriculteu": 2.2, "cadres": 10.0, "nbactif": 292 }, "geometry": { "type": "Point", "coordinates": [ -1.941105245485019, 48.309540064207894 ] } },
{ "type": "Feature", "properties": { "INSEE_COM": "35356", "NOM_COM_M": "VIGNOC", "ouvriers": 12.7, "retraites": 16.4, "prof_inter": 18.9, "sans_activ": 14.5, "employes": 17.1, "artisans": 5.8, "agriculteu": 1.8, "cadres": 12.7, "nbactif": 968 }, "geometry": { "type": "Point", "coordinates": [ -1.763627590178132, 48.256947457621273 ] } },
{ "type": "Feature", "properties": { "INSEE_COM": "35060", "NOM_COM_M": "CHAPELLE DU LOU DU LAC", "ouvriers": 28.0, "retraites": 13.4, "prof_inter": 15.3, "sans_activ": 12.0, "employes": 21.7, "artisans": 2.1, "agriculteu": 4.9, "cadres": 2.8, "nbactif": 528 }, "geometry": { "type": "Point", "coordinates": [ -1.993518252914675, 48.215779099279516 ] } },
{ "type": "Feature", "properties": { "INSEE_COM": "35128", "NOM_COM_M": "GUIPEL", "ouvriers": 18.9, "retraites": 21.1, "prof_inter": 12.8, "sans_activ": 11.7, "employes": 22.2, "artisans": 2.6, "agriculteu": 3.8, "cadres": 6.8, "nbactif": 821 }, "geometry": { "type": "Point", "coordinates": [ -1.723623165695795, 48.292444381403712 ] } },
{ "type": "Feature", "properties": { "INSEE_COM": "35130", "NOM_COM_M": "HEDE BAZOUGES", "ouvriers": 14.8, "retraites": 19.4, "prof_inter": 21.4, "sans_activ": 10.5, "employes": 18.3, "artisans": 2.0, "agriculteu": 0.9, "cadres": 12.8, "nbactif": 1161 }, "geometry": { "type": "Point", "coordinates": [ -1.777738952039134, 48.302175539577334 ] } },
{ "type": "Feature", "properties": { "INSEE_COM": "35146", "NOM_COM_M": "LANGOUET", "ouvriers": 10.9, "retraites": 24.2, "prof_inter": 21.7, "sans_activ": 9.7, "employes": 19.3, "artisans": 2.4, "agriculteu": 3.6, "cadres": 8.5, "nbactif": 308 }, "geometry": { "type": "Point", "coordinates": [ -1.809650339374403, 48.254592213111572 ] } },
{ "type": "Feature", "properties": { "INSEE_COM": "35318", "NOM_COM_M": "SAINT THUAL", "ouvriers": 16.4, "retraites": 15.8, "prof_inter": 18.9, "sans_activ": 12.1, "employes": 23.8, "artisans": 1.8, "agriculteu": 0.0, "cadres": 11.1, "nbactif": 429 }, "geometry": { "type": "Point", "coordinates": [ -1.931788485525862, 48.335637111072792 ] } },
{ "type": "Feature", "properties": { "INSEE_COM": "35233", "NOM_COM_M": "QUEBRIAC", "ouvriers": 14.8, "retraites": 25.3, "prof_inter": 15.6, "sans_activ": 12.5, "employes": 12.1, "artisans": 6.5, "agriculteu": 3.2, "cadres": 10.1, "nbactif": 775 }, "geometry": { "type": "Point", "coordinates": [ -1.813001831401418, 48.35657470390003 ] } },
{ "type": "Feature", "properties": { "INSEE_COM": "35058", "NOM_COM_M": "CHAPELLE CHAUSSEE", "ouvriers": 17.3, "retraites": 14.6, "prof_inter": 16.8, "sans_activ": 14.6, "employes": 17.9, "artisans": 6.5, "agriculteu": 2.2, "cadres": 10.2, "nbactif": 626 }, "geometry": { "type": "Point", "coordinates": [ -1.863967901979545, 48.266711566286723 ] } },
{ "type": "Feature", "properties": { "INSEE_COM": "35050", "NOM_COM_M": "CARDROC", "ouvriers": 13.3, "retraites": 26.4, "prof_inter": 27.6, "sans_activ": 13.3, "employes": 9.5, "artisans": 3.5, "agriculteu": 0.0, "cadres": 6.0, "nbactif": 273 }, "geometry": { "type": "Point", "coordinates": [ -1.893575148974185, 48.284705073382241 ] } },
{ "type": "Feature", "properties": { "INSEE_COM": "35346", "NOM_COM_M": "TRIMER", "ouvriers": 32.2, "retraites": 7.0, "prof_inter": 28.7, "sans_activ": 3.5, "employes": 21.7, "artisans": 0.0, "agriculteu": 0.0, "cadres": 7.0, "nbactif": 103 }, "geometry": { "type": "Point", "coordinates": [ -1.897227025500968, 48.344755840510295 ] } },
{ "type": "Feature", "properties": { "INSEE_COM": "35310", "NOM_COM_M": "SAINT SAUVEUR DES LANDES", "ouvriers": 21.1, "retraites": 25.5, "prof_inter": 10.8, "sans_activ": 12.5, "employes": 21.1, "artisans": 3.6, "agriculteu": 0.9, "cadres": 4.5, "nbactif": 679 }, "geometry": { "type": "Point", "coordinates": [ -1.314272037737636, 48.346887505727793 ] } },
{ "type": "Feature", "properties": { "INSEE_COM": "35144", "NOM_COM_M": "LANGAN", "ouvriers": 19.9, "retraites": 23.9, "prof_inter": 19.9, "sans_activ": 6.9, "employes": 18.5, "artisans": 4.1, "agriculteu": 2.8, "cadres": 4.1, "nbactif": 464 }, "geometry": { "type": "Point", "coordinates": [ -1.845183446920224, 48.236014265230558 ] } },
{ "type": "Feature", "properties": { "INSEE_COM": "35257", "NOM_COM_M": "MAEN ROCH", "ouvriers": 20.5, "retraites": 34.6, "prof_inter": 11.2, "sans_activ": 10.1, "employes": 13.4, "artisans": 2.9, "agriculteu": 3.0, "cadres": 4.2, "nbactif": 2107 }, "geometry": { "type": "Point", "coordinates": [ -1.345724115791884, 48.400633630314516 ] } },
{ "type": "Feature", "properties": { "INSEE_COM": "35021", "NOM_COM_M": "BEAUCE", "ouvriers": 16.5, "retraites": 30.3, "prof_inter": 13.8, "sans_activ": 16.5, "employes": 16.9, "artisans": 3.4, "agriculteu": 0.0, "cadres": 2.6, "nbactif": 591 }, "geometry": { "type": "Point", "coordinates": [ -1.155556817344779, 48.346756297157668 ] } },
{ "type": "Feature", "properties": { "INSEE_COM": "35286", "NOM_COM_M": "SAINT LEGER DES PRES", "ouvriers": 26.2, "retraites": 15.9, "prof_inter": 15.9, "sans_activ": 7.7, "employes": 23.6, "artisans": 5.1, "agriculteu": 2.6, "cadres": 2.6, "nbactif": 124 }, "geometry": { "type": "Point", "coordinates": [ -1.657126268252714, 48.388352626326864 ] } },
{ "type": "Feature", "properties": { "INSEE_COM": "35326", "NOM_COM_M": "SENS DE BRETAGNE", "ouvriers": 15.0, "retraites": 25.2, "prof_inter": 14.4, "sans_activ": 10.2, "employes": 20.5, "artisans": 5.0, "agriculteu": 2.6, "cadres": 7.1, "nbactif": 1155 }, "geometry": { "type": "Point", "coordinates": [ -1.55403937344111, 48.336387207531565 ] } },
{ "type": "Feature", "properties": { "INSEE_COM": "35336", "NOM_COM_M": "TIERCENT", "ouvriers": 10.6, "retraites": 21.2, "prof_inter": 21.2, "sans_activ": 10.6, "employes": 18.2, "artisans": 6.8, "agriculteu": 6.8, "cadres": 3.8, "nbactif": 94 }, "geometry": { "type": "Point", "coordinates": [ -1.423469842874131, 48.350023353805383 ] } },
{ "type": "Feature", "properties": { "INSEE_COM": "35164", "NOM_COM_M": "MARCILLE RAOUL", "ouvriers": 21.3, "retraites": 32.0, "prof_inter": 11.5, "sans_activ": 12.3, "employes": 13.1, "artisans": 2.5, "agriculteu": 6.6, "cadres": 0.8, "nbactif": 357 }, "geometry": { "type": "Point", "coordinates": [ -1.613776146979842, 48.374836514031244 ] } },
{ "type": "Feature", "properties": { "INSEE_COM": "35261", "NOM_COM_M": "SAINT CHRISTOPHE DE VALAINS", "ouvriers": 22.7, "retraites": 14.2, "prof_inter": 22.7, "sans_activ": 11.4, "employes": 14.2, "artisans": 5.7, "agriculteu": 0.0, "cadres": 8.5, "nbactif": 113 }, "geometry": { "type": "Point", "coordinates": [ -1.451436924315168, 48.34137077309714 ] } },
{ "type": "Feature", "properties": { "INSEE_COM": "35110", "NOM_COM_M": "FEINS", "ouvriers": 20.0, "retraites": 22.1, "prof_inter": 14.0, "sans_activ": 12.1, "employes": 16.6, "artisans": 2.6, "agriculteu": 2.6, "cadres": 10.0, "nbactif": 466 }, "geometry": { "type": "Point", "coordinates": [ -1.625905064478595, 48.328169559619454 ] } },
{ "type": "Feature", "properties": { "INSEE_COM": "35150", "NOM_COM_M": "LECOUSSE", "ouvriers": 12.9, "retraites": 36.5, "prof_inter": 13.8, "sans_activ": 13.4, "employes": 14.0, "artisans": 2.2, "agriculteu": 0.9, "cadres": 6.1, "nbactif": 1406 }, "geometry": { "type": "Point", "coordinates": [ -1.221028403999666, 48.359866004753634 ] } },
{ "type": "Feature", "properties": { "INSEE_COM": "35273", "NOM_COM_M": "SAINT GERMAIN EN COGLES", "ouvriers": 18.3, "retraites": 30.8, "prof_inter": 11.3, "sans_activ": 11.9, "employes": 14.7, "artisans": 4.9, "agriculteu": 5.8, "cadres": 2.4, "nbactif": 935 }, "geometry": { "type": "Point", "coordinates": [ -1.264840105107804, 48.397526390296228 ] } },
{ "type": "Feature", "properties": { "INSEE_COM": "35148", "NOM_COM_M": "LANRIGAN", "ouvriers": 18.3, "retraites": 36.7, "prof_inter": 9.2, "sans_activ": 4.6, "employes": 18.3, "artisans": 9.2, "agriculteu": 0.0, "cadres": 4.6, "nbactif": 64 }, "geometry": { "type": "Point", "coordinates": [ -1.691949169698481, 48.39146381584289 ] } },
{ "type": "Feature", "properties": { "INSEE_COM": "35115", "NOM_COM_M": "FOUGERES", "ouvriers": 15.4, "retraites": 35.0, "prof_inter": 12.7, "sans_activ": 15.1, "employes": 14.1, "artisans": 2.5, "agriculteu": 0.1, "cadres": 5.3, "nbactif": 8648 }, "geometry": { "type": "Point", "coordinates": [ -1.194409293173476, 48.352770813232929 ] } },
{ "type": "Feature", "properties": { "INSEE_COM": "35243", "NOM_COM_M": "ROMAGNE", "ouvriers": 18.8, "retraites": 26.2, "prof_inter": 21.5, "sans_activ": 8.2, "employes": 13.5, "artisans": 3.2, "agriculteu": 2.6, "cadres": 5.9, "nbactif": 1151 }, "geometry": { "type": "Point", "coordinates": [ -1.262509734148807, 48.344536539102783 ] } },
{ "type": "Feature", "properties": { "INSEE_COM": "35309", "NOM_COM_M": "SAINT REMY DU PLAIN", "ouvriers": 25.0, "retraites": 23.4, "prof_inter": 11.3, "sans_activ": 10.5, "employes": 20.2, "artisans": 3.2, "agriculteu": 2.4, "cadres": 4.0, "nbactif": 391 }, "geometry": { "type": "Point", "coordinates": [ -1.566420429634039, 48.376102102155812 ] } },
{ "type": "Feature", "properties": { "INSEE_COM": "35142", "NOM_COM_M": "LANDEAN", "ouvriers": 19.6, "retraites": 32.4, "prof_inter": 9.8, "sans_activ": 10.8, "employes": 14.7, "artisans": 4.9, "agriculteu": 6.4, "cadres": 1.4, "nbactif": 544 }, "geometry": { "type": "Point", "coordinates": [ -1.147801782344613, 48.41311206105145 ] } },
{ "type": "Feature", "properties": { "INSEE_COM": "35280", "NOM_COM_M": "SAINT HILAIRE DES LANDES", "ouvriers": 16.9, "retraites": 29.1, "prof_inter": 18.1, "sans_activ": 8.4, "employes": 17.0, "artisans": 0.6, "agriculteu": 3.8, "cadres": 5.9, "nbactif": 486 }, "geometry": { "type": "Point", "coordinates": [ -1.366574450924891, 48.338312655429021 ] } },
{ "type": "Feature", "properties": { "INSEE_COM": "35291", "NOM_COM_M": "SAINT MARCAN", "ouvriers": 13.2, "retraites": 43.7, "prof_inter": 8.0, "sans_activ": 17.6, "employes": 8.0, "artisans": 5.5, "agriculteu": 3.8, "cadres": 0.0, "nbactif": 160 }, "geometry": { "type": "Point", "coordinates": [ -1.628050578694023, 48.585258690002931 ] } },
{ "type": "Feature", "properties": { "INSEE_COM": "35247", "NOM_COM_M": "ROZ SUR COUESNON", "ouvriers": 12.6, "retraites": 37.2, "prof_inter": 9.0, "sans_activ": 16.7, "employes": 11.4, "artisans": 5.9, "agriculteu": 3.0, "cadres": 4.2, "nbactif": 387 }, "geometry": { "type": "Point", "coordinates": [ -1.593200684977103, 48.596238197186715 ] } },
{ "type": "Feature", "properties": { "INSEE_COM": "35104", "NOM_COM_M": "EPINIAC", "ouvriers": 22.0, "retraites": 28.0, "prof_inter": 15.8, "sans_activ": 10.0, "employes": 15.1, "artisans": 1.9, "agriculteu": 3.1, "cadres": 4.1, "nbactif": 673 }, "geometry": { "type": "Point", "coordinates": [ -1.703046920382388, 48.499720530460394 ] } },
{ "type": "Feature", "properties": { "INSEE_COM": "35191", "NOM_COM_M": "PORTES DU COGLAIS", "ouvriers": 26.5, "retraites": 27.6, "prof_inter": 11.1, "sans_activ": 10.6, "employes": 14.5, "artisans": 2.1, "agriculteu": 4.6, "cadres": 3.1, "nbactif": 1138 }, "geometry": { "type": "Point", "coordinates": [ -1.335649468506849, 48.449191182614484 ] } },
{ "type": "Feature", "properties": { "INSEE_COM": "35248", "NOM_COM_M": "SAINS", "ouvriers": 15.4, "retraites": 43.3, "prof_inter": 9.6, "sans_activ": 15.4, "employes": 11.8, "artisans": 0.0, "agriculteu": 2.4, "cadres": 2.4, "nbactif": 190 }, "geometry": { "type": "Point", "coordinates": [ -1.603981170329146, 48.555989403646471 ] } },
{ "type": "Feature", "properties": { "INSEE_COM": "35339", "NOM_COM_M": "TRANS LA FORET", "ouvriers": 12.6, "retraites": 43.2, "prof_inter": 7.4, "sans_activ": 8.4, "employes": 15.8, "artisans": 3.2, "agriculteu": 7.4, "cadres": 2.1, "nbactif": 258 }, "geometry": { "type": "Point", "coordinates": [ -1.603795389733414, 48.487721711258651 ] } },
{ "type": "Feature", "properties": { "INSEE_COM": "35111", "NOM_COM_M": "FERRE", "ouvriers": 17.4, "retraites": 34.1, "prof_inter": 5.8, "sans_activ": 8.7, "employes": 12.6, "artisans": 5.8, "agriculteu": 12.6, "cadres": 2.9, "nbactif": 331 }, "geometry": { "type": "Point", "coordinates": [ -1.29421618227939, 48.486612531836961 ] } },
{ "type": "Feature", "properties": { "INSEE_COM": "35092", "NOM_COM_M": "CUGUEN", "ouvriers": 21.5, "retraites": 31.9, "prof_inter": 13.4, "sans_activ": 6.3, "employes": 14.2, "artisans": 5.5, "agriculteu": 5.5, "cadres": 1.6, "nbactif": 393 }, "geometry": { "type": "Point", "coordinates": [ -1.656346001491987, 48.440645354001852 ] } },
{ "type": "Feature", "properties": { "INSEE_COM": "35354", "NOM_COM_M": "VIEUX VIEL", "ouvriers": 18.4, "retraites": 31.6, "prof_inter": 7.4, "sans_activ": 18.4, "employes": 12.9, "artisans": 3.7, "agriculteu": 3.7, "cadres": 3.7, "nbactif": 127 }, "geometry": { "type": "Point", "coordinates": [ -1.553387689511466, 48.501362967246827 ] } },
{ "type": "Feature", "properties": { "INSEE_COM": "35230", "NOM_COM_M": "POILLEY", "ouvriers": 8.2, "retraites": 34.1, "prof_inter": 14.5, "sans_activ": 8.2, "employes": 19.2, "artisans": 4.7, "agriculteu": 9.8, "cadres": 1.6, "nbactif": 181 }, "geometry": { "type": "Point", "coordinates": [ -1.25658862865158, 48.4659757264752 ] } },
{ "type": "Feature", "properties": { "INSEE_COM": "35019", "NOM_COM_M": "BAZOUGES LA PEROUSE", "ouvriers": 14.9, "retraites": 38.4, "prof_inter": 7.6, "sans_activ": 13.2, "employes": 13.1, "artisans": 2.7, "agriculteu": 4.9, "cadres": 5.3, "nbactif": 759 }, "geometry": { "type": "Point", "coordinates": [ -1.563592626521007, 48.440628122061177 ] } },
{ "type": "Feature", "properties": { "INSEE_COM": "35270", "NOM_COM_M": "SAINT GEORGES DE GREHAIGNE", "ouvriers": 16.5, "retraites": 47.6, "prof_inter": 8.1, "sans_activ": 6.5, "employes": 11.3, "artisans": 3.2, "agriculteu": 4.9, "cadres": 1.6, "nbactif": 141 }, "geometry": { "type": "Point", "coordinates": [ -1.549645536178762, 48.578801802014254 ] } },
{ "type": "Feature", "properties": { "INSEE_COM": "35190", "NOM_COM_M": "MONTHAULT", "ouvriers": 34.0, "retraites": 26.7, "prof_inter": 2.4, "sans_activ": 9.7, "employes": 9.7, "artisans": 4.9, "agriculteu": 12.1, "cadres": 0.0, "nbactif": 116 }, "geometry": { "type": "Point", "coordinates": [ -1.175882453228983, 48.512339094414877 ] } },
{ "type": "Feature", "properties": { "INSEE_COM": "35222", "NOM_COM_M": "PLEINE FOUGERES", "ouvriers": 15.6, "retraites": 39.6, "prof_inter": 8.4, "sans_activ": 8.9, "employes": 16.9, "artisans": 5.6, "agriculteu": 3.2, "cadres": 1.9, "nbactif": 787 }, "geometry": { "type": "Point", "coordinates": [ -1.573676268342145, 48.531066685694427 ] } },
{ "type": "Feature", "properties": { "INSEE_COM": "35271", "NOM_COM_M": "SAINT GEORGES DE REINTEMBAULT", "ouvriers": 14.0, "retraites": 38.9, "prof_inter": 10.0, "sans_activ": 15.4, "employes": 13.2, "artisans": 0.8, "agriculteu": 4.8, "cadres": 2.8, "nbactif": 567 }, "geometry": { "type": "Point", "coordinates": [ -1.235180109307636, 48.512981982833253 ] } },
{ "type": "Feature", "properties": { "INSEE_COM": "35342", "NOM_COM_M": "TREMEHEUC", "ouvriers": 15.5, "retraites": 30.0, "prof_inter": 17.7, "sans_activ": 8.3, "employes": 15.9, "artisans": 5.4, "agriculteu": 1.8, "cadres": 5.4, "nbactif": 164 }, "geometry": { "type": "Point", "coordinates": [ -1.697373914840109, 48.438558458687844 ] } },
{ "type": "Feature", "properties": { "INSEE_COM": "35329", "NOM_COM_M": "SOUGEAL", "ouvriers": 16.6, "retraites": 42.9, "prof_inter": 4.3, "sans_activ": 13.3, "employes": 14.3, "artisans": 2.3, "agriculteu": 6.6, "cadres": 0.0, "nbactif": 222 }, "geometry": { "type": "Point", "coordinates": [ -1.51506072342945, 48.502287533603223 ] } },
{ "type": "Feature", "properties": { "INSEE_COM": "35215", "NOM_COM_M": "PARIGNE", "ouvriers": 21.0, "retraites": 27.4, "prof_inter": 17.0, "sans_activ": 7.5, "employes": 17.0, "artisans": 2.0, "agriculteu": 3.5, "cadres": 4.6, "nbactif": 654 }, "geometry": { "type": "Point", "coordinates": [ -1.197695269346006, 48.425637271174573 ] } },
{ "type": "Feature", "properties": { "INSEE_COM": "35162", "NOM_COM_M": "LOUVIGNE DU DESERT", "ouvriers": 17.2, "retraites": 45.3, "prof_inter": 6.7, "sans_activ": 11.7, "employes": 10.3, "artisans": 2.3, "agriculteu": 4.3, "cadres": 2.1, "nbactif": 1304 }, "geometry": { "type": "Point", "coordinates": [ -1.123484186474319, 48.486797663328652 ] } },
{ "type": "Feature", "properties": { "INSEE_COM": "35018", "NOM_COM_M": "BAZOUGE DU DESERT", "ouvriers": 24.1, "retraites": 28.7, "prof_inter": 6.3, "sans_activ": 11.4, "employes": 19.0, "artisans": 2.2, "agriculteu": 6.3, "cadres": 1.7, "nbactif": 517 }, "geometry": { "type": "Point", "coordinates": [ -1.109673080237617, 48.44396310283058 ] } },